{"location":{"coordinates":[-73.856077,40.848447],"type":"Point"},"name":"Morris Park Bake Shop"}
{"location":{"coordinates":[-73.961704,40.662942],"type":"Point"},"name":"Wendy'S"}
{"location":{"coordinates":[-73.98241999999999,40.579505],"type":"Point"},"name":"Riviera Caterer"}
{"location":{"coordinates":[-73.8601152,40.7311739],"type":"Point"},"name":"Tov Kosher Kitchen"}
{"location":{"coordinates":[-73.8803827,40.7643124],"type":"Point"},"name":"Brunos On The Boulevard"}
{"location":{"coordinates":[-73.98513559999999,40.7676919],"type":"Point"},"name":"Dj Reynolds Pub And Restaurant"}
{"location":{"coordinates":[-73.9068506,40.6199034],"type":"Point"},"name":"Wilken'S Fine Food"}
{"location":{"coordinates":[-74.00528899999999,40.628886],"type":"Point"},"name":"Regina Caterers"}
{"location":{"coordinates":[-73.9482609,40.6408271],"type":"Point"},"name":"Taste The Tropics Ice Cream"}
{"location":{"coordinates":[-74.1377286,40.6119572],"type":"Point"},"name":"Kosher Island"}
{"location":{"coordinates":[-73.8786113,40.8502883],"type":"Point"},"name":"Wild Asia"}
{"location":{"coordinates":[-73.9973325,40.61174889999999],"type":"Point"},"name":"C \u0026 C Catering Service"}
{"location":{"coordinates":[-73.96926909999999,40.7685235],"type":"Point"},"name":"1 East 66Th Street Kitchen"}
{"location":{"coordinates":[-73.871194,40.6730975],"type":"Point"},"name":"May May Kitchen"}
{"location":{"coordinates":[-73.9653967,40.6064339],"type":"Point"},"name":"Seuda Foods"}
{"location":{"coordinates":[-73.97822040000001,40.6435254],"type":"Point"},"name":"Carvel Ice Cream"}
{"location":{"coordinates":[-73.7032601,40.7386417],"type":"Point"},"name":"Carvel Ice Cream"}
{"location":{"coordinates":[-74.0259567,40.6353674],"type":"Point"},"name":"Nordic Delicacies"}
{"location":{"coordinates":[-73.9829239,40.6580753],"type":"Point"},"name":"The Movable Feast"}
{"location":{"coordinates":[-73.839297,40.78147],"type":"Point"},"name":"Sal'S Deli"}
{"location":{"coordinates":[-73.95171,40.767461],"type":"Point"},"name":"Glorious Food"}
{"location":{"coordinates":[-73.9925306,40.7309346],"type":"Point"},"name":"Bully'S Deli"}
{"location":{"coordinates":[-73.976112,40.786714],"type":"Point"},"name":"Harriet'S Kitchen"}
{"location":{"coordinates":[-73.94024739999999,40.7623288],"type":"Point"},"name":"Steve Chu'S Deli \u0026 Grocery"}
{"location":{"coordinates":[-73.96805719999999,40.7925587],"type":"Point"},"name":"P \u0026 S Deli Grocery"}
{"location":{"coordinates":[-73.996984,40.72589],"type":"Point"},"name":"Angelika Film Center"}
{"location":{"coordinates":[-73.9634876,40.6940001],"type":"Point"},"name":"White Castle"}
{"location":{"coordinates":[-73.8642349,40.75356],"type":"Point"},"name":"Ho Mei Restaurant"}
{"location":{"coordinates":[-74.0085357,40.70620539999999],"type":"Point"},"name":"The Country Cafe"}
{"location":{"coordinates":[-73.9246028,40.6522396],"type":"Point"},"name":"Shashemene Int'L Restaura"}
{"location":{"coordinates":[-74.00920839999999,40.7132925],"type":"Point"},"name":"Downtown Deli"}
{"location":{"coordinates":[-73.84856870000002,40.8903781],"type":"Point"},"name":"Carvel Ice Cream"}
{"location":{"coordinates":[-73.991495,40.692273],"type":"Point"},"name":"Dunkin' Donuts"}
{"location":{"coordinates":[-73.9998042,40.7251256],"type":"Point"},"name":"Olive'S"}
{"location":{"coordinates":[-73.8893654,40.81376179999999],"type":"Point"},"name":"Happy Garden"}
{"location":{"coordinates":[-73.990494,40.7569545],"type":"Point"},"name":"Cafe Metro"}
{"location":{"coordinates":[-73.902463,40.694924],"type":"Point"},"name":"Tony'S Deli"}
{"location":{"coordinates":[-73.97534999999999,40.7516269],"type":"Point"},"name":"Lexler Deli"}
{"location":{"coordinates":[-74.1459332,40.6103714],"type":"Point"},"name":"Bagels N Buns"}
{"location":{"coordinates":[-73.8740217,40.7135015],"type":"Point"},"name":"Hot Bagels"}
{"location":{"coordinates":[-73.8309503,40.7001121],"type":"Point"},"name":"Snack Time Grill"}
{"location":{"coordinates":[-73.9791458,40.744328],"type":"Point"},"name":"Domino'S Pizza"}
{"location":{"coordinates":[-73.95685019999999,40.7753401],"type":"Point"},"name":"Lorenzo \u0026 Maria'S"}
{"location":{"coordinates":[-73.975393,40.757365],"type":"Point"},"name":"Berkely"}
{"location":{"coordinates":[-73.9075537,40.6438684],"type":"Point"},"name":"Sonny'S Heros"}
{"location":{"coordinates":[-74.0796436,40.59878339999999],"type":"Point"},"name":"Carvel Ice Cream"}
{"location":{"coordinates":[-73.92701509999999,40.6620192],"type":"Point"},"name":"Golden Pavillion"}
{"location":{"coordinates":[-73.9806854,40.7778589],"type":"Point"},"name":"Domino'S Pizza"}
{"location":{"coordinates":[-73.9615132,40.6253268],"type":"Point"},"name":"Kosher Bagel Hole"}
{"location":{"coordinates":[-73.96084119999999,40.8014307],"type":"Point"},"name":"Spoon Bread Catering"}
{"location":{"coordinates":[-84.2040813,9.9986585],"type":"Point"},"name":"Terminal Cafe/Yankee Clipper"}
{"location":{"coordinates":[-74.0228449,40.6281815],"type":"Point"},"name":"Mejlander \u0026 Mulgannon"}
{"location":{"coordinates":[-74.1178949,40.5734906],"type":"Point"},"name":"Plaza Bagels \u0026 Deli"}
{"location":{"coordinates":[-74.0061936,40.7092038],"type":"Point"},"name":"Texas Rotisserie"}
{"location":{"coordinates":[-74.03400479999999,40.6127077],"type":"Point"},"name":"Philadelhia Grille Express"}
{"location":{"coordinates":[-73.96252129999999,40.7098035],"type":"Point"},"name":"Peter Luger Steakhouse"}
{"location":{"coordinates":[-73.9712,40.751703],"type":"Point"},"name":"Palm Restaurant"}
{"location":{"coordinates":[-73.8941893,40.8634684],"type":"Point"},"name":"Happy Garden"}
{"location":{"coordinates":[-73.9774394,40.7604522],"type":"Point"},"name":"21 Club"}
{"location":{"coordinates":[-73.81363999999999,40.82941100000001],"type":"Point"},"name":"Manhem Club"}
{"location":{"coordinates":[-74.15235919999999,40.5563756],"type":"Point"},"name":"B \u0026 M Hot Bagel \u0026 Grocery"}
{"location":{"coordinates":[-73.966032,40.762832],"type":"Point"},"name":"Isle Of Capri Resturant"}
{"location":{"coordinates":[-73.9891878,40.7375638],"type":"Point"},"name":"Old Town Bar \u0026 Restaurant"}
{"location":{"coordinates":[-73.94839189999999,40.7224876],"type":"Point"},"name":"Polish National Home"}
{"location":{"coordinates":[-73.97166039999999,40.764832],"type":"Point"},"name":"Metropolitan Club"}
{"location":{"coordinates":[-74.00310999999999,40.7348888],"type":"Point"},"name":"Seville Restaurant"}
{"location":{"coordinates":[-74.0010484,40.71599000000001],"type":"Point"},"name":"Criminal Court Bldg Cafeteria"}
{"location":{"coordinates":[-73.9056678,40.7066898],"type":"Point"},"name":"Gottscheer Hall"}
{"location":{"coordinates":[-73.9788694,40.7665961],"type":"Point"},"name":"Nyac Main Dining Room"}
{"location":{"coordinates":[-73.98146,40.7250067],"type":"Point"},"name":"7B Bar"}
{"location":{"coordinates":[-73.86137149999999,40.7293762],"type":"Point"},"name":"Ben-Best Deli \u0026 Restaurant"}
{"location":{"coordinates":[-73.9805679,40.7659436],"type":"Point"},"name":"Cafe Atelier (Art Students League)"}
{"location":{"coordinates":[-73.965531,40.765431],"type":"Point"},"name":"Donohue'S Steak House"}
{"location":{"coordinates":[-73.9818918,40.6901211],"type":"Point"},"name":"Junior'S"}
{"location":{"coordinates":[-73.98621899999999,40.763406],"type":"Point"},"name":"Tout Va Bien"}
{"location":{"coordinates":[-74.138263,40.546681],"type":"Point"},"name":"Great Kills Yacht Club"}
{"location":{"coordinates":[-73.9775552,40.7432016],"type":"Point"},"name":"Marchis Restaurant"}
{"location":{"coordinates":[-73.95443709999999,40.5877993],"type":"Point"},"name":"Towne Cafe"}
{"location":{"coordinates":[-73.840437,40.6627235],"type":"Point"},"name":"New Park Pizzeria \u0026 Restaurant"}
{"location":{"coordinates":[-73.96485799999999,40.761899],"type":"Point"},"name":"Serendipity 3"}
{"location":{"coordinates":[-73.7522366,40.7766941],"type":"Point"},"name":"Douglaston Club"}
{"location":{"coordinates":[-73.9151096,40.763377],"type":"Point"},"name":"Rizzo'S Fine Pizza"}
{"location":{"coordinates":[-74.002944,40.652779],"type":"Point"},"name":"Melody Lanes"}
{"location":{"coordinates":[-73.84971759999999,40.8304811],"type":"Point"},"name":"The New Starling Athletic Club Of The Bronx"}
{"location":{"coordinates":[-74.00619499999999,40.735663],"type":"Point"},"name":"White Horse Tavern"}
{"location":{"coordinates":[-74.0707363,40.59321569999999],"type":"Point"},"name":"Crystal Room"}
{"location":{"coordinates":[-74.07444319999999,40.6096914],"type":"Point"},"name":"Labetti'S Post # 2159"}
{"location":{"coordinates":[-73.9727638,40.588853],"type":"Point"},"name":"Shell Lanes"}
{"location":{"coordinates":[-73.9896713,40.7287978],"type":"Point"},"name":"Mcsorley'S Old Ale House"}
{"location":{"coordinates":[-73.99950489999999,40.7169224],"type":"Point"},"name":"Forlinis Restaurant"}
{"location":{"coordinates":[-74.2274942,40.5071996],"type":"Point"},"name":"South Shore Swimming Club"}
{"location":{"coordinates":[-74.0037823,40.7380122],"type":"Point"},"name":"Corner Bistro"}
{"location":{"coordinates":[-73.94933739999999,40.6509823],"type":"Point"},"name":"Nostrand Donut Shop"}
{"location":{"coordinates":[-73.97557069999999,40.7596796],"type":"Point"},"name":"La Grenouille"}
{"location":{"coordinates":[-73.952449,40.776325],"type":"Point"},"name":"Dorrian'S Red Hand Restaurant"}
{"location":{"coordinates":[-73.9395182,40.8422945],"type":"Point"},"name":"Como Pizza"}
{"location":{"coordinates":[-73.9973041,40.7188698],"type":"Point"},"name":"Angelo Of Mulberry St."}
{"location":{"coordinates":[-74.001043,40.729795],"type":"Point"},"name":"Panchito'S"}
{"location":{"coordinates":[-74.0166091,40.6284767],"type":"Point"},"name":"New Corner"}
{"location":{"coordinates":[-74.004758,40.741207],"type":"Point"},"name":"Old Homestead"}
{"location":{"coordinates":[-48.9424,-16.3550032],"type":"Point"},"name":"Dining Room"}
{"location":{"coordinates":[-73.98126069999999,40.7547107],"type":"Point"},"name":"The Princeton Club"}
{"location":{"coordinates":[-73.9646207,40.7550069],"type":"Point"},"name":"Le Perigord"}
{"location":{"coordinates":[-74.1220973,40.6129407],"type":"Point"},"name":"Joe \u0026 Pat'S Pizzeria"}
{"location":{"coordinates":[-73.9365108,40.8497077],"type":"Point"},"name":"Reynold'S Bar"}
{"location":{"coordinates":[-73.97063700000001,40.751495],"type":"Point"},"name":"Keats Restaurant"}
{"location":{"coordinates":[-73.9979214,40.7371344],"type":"Point"},"name":"Spain Restaurant \u0026 Bar"}
{"location":{"coordinates":[-73.9446421,40.7253944],"type":"Point"},"name":"Palace Cafe"}
{"location":{"coordinates":[-73.92506,40.8275556],"type":"Point"},"name":"Yankee Tavern"}
{"location":{"coordinates":[-73.99987229999999,40.7386361],"type":"Point"},"name":"Donut Pub"}
{"location":{"coordinates":[-74.0056649,40.7452371],"type":"Point"},"name":"Moran'S Chelsea"}
{"location":{"coordinates":[-73.96392089999999,40.8033908],"type":"Point"},"name":"V \u0026 T Restaurant"}
{"location":{"coordinates":[-73.9590059,40.7090147],"type":"Point"},"name":"Reben Luncheonette"}
{"location":{"coordinates":[-73.7867565,40.7271312],"type":"Point"},"name":"King Yum Restaurant"}
{"location":{"coordinates":[-73.9896898,40.6199526],"type":"Point"},"name":"J\u0026V Famous Pizza"}
{"location":{"coordinates":[-73.8850023,40.7494272],"type":"Point"},"name":"Jahn'S Restaurant"}
{"location":{"coordinates":[-73.9799932,40.7660886],"type":"Point"},"name":"La Parisienne Diner"}
{"location":{"coordinates":[-73.989131,40.760039],"type":"Point"},"name":"Joe Allen Restaurant"}
{"location":{"coordinates":[-74.16536339999999,40.5450793],"type":"Point"},"name":"Joyce'S Tavern"}
{"location":{"coordinates":[-74.0003315,40.7274874],"type":"Point"},"name":"Arturo'S"}
{"location":{"coordinates":[-73.988948,40.760337],"type":"Point"},"name":"Barbetta Restaurant"}
{"location":{"coordinates":[-73.982241,40.576366],"type":"Point"},"name":"Gargiulo'S Restaurant"}
{"location":{"coordinates":[-73.96117869999999,40.7619226],"type":"Point"},"name":"Il Vagabondo Restaurant"}
{"location":{"coordinates":[-73.856132,40.743841],"type":"Point"},"name":"Parkside Restaurant"}
{"location":{"coordinates":[-73.91427200000001,40.7569379],"type":"Point"},"name":"Lavelle'S Admiral'S Club"}
{"location":{"coordinates":[-73.963506,40.758273],"type":"Point"},"name":"Neary'S Pub"}
{"location":{"coordinates":[-73.87786539999999,40.8724377],"type":"Point"},"name":"Mcdwyers Pub"}
{"location":{"coordinates":[-73.9983,40.715051],"type":"Point"},"name":"Mee Sum Coffee Shop"}
{"location":{"coordinates":[-73.70902579999999,40.7276012],"type":"Point"},"name":"Nancy'S Fire Side"}
{"location":{"coordinates":[-73.9990337,40.7143954],"type":"Point"},"name":"Hop Kee Restaurant"}
{"location":{"coordinates":[-74.0049219,40.720699],"type":"Point"},"name":"Nancy Whiskey Pub"}
{"location":{"coordinates":[-73.808593,40.702028],"type":"Point"},"name":"Blarney Bar"}
{"location":{"coordinates":[-73.78999089999999,40.7118632],"type":"Point"},"name":"Margherita Pizza"}
{"location":{"coordinates":[-73.8299395,40.5812137],"type":"Point"},"name":"Healy'S Pub"}
{"location":{"coordinates":[-73.98586209999999,40.67017250000001],"type":"Point"},"name":"Fifth Avenue Bingo"}
{"location":{"coordinates":[-74.1402105,40.6301893],"type":"Point"},"name":"Denino'S Pizzeria Tavern"}
{"location":{"coordinates":[-73.942849,40.6076256],"type":"Point"},"name":"Michael'S Restaurant"}
{"location":{"coordinates":[-73.99532099999999,40.750205],"type":"Point"},"name":"New York Pizza Suprema"}
{"location":{"coordinates":[-73.9736776,40.7535755],"type":"Point"},"name":"Nanni Restaurant"}
{"location":{"coordinates":[-73.82770529999999,40.6944628],"type":"Point"},"name":"Lenihan'S Saloon"}
{"location":{"coordinates":[-73.8682701,40.745683],"type":"Point"},"name":"Emilio Iii Bar"}
{"location":{"coordinates":[-74.0086833,40.7052024],"type":"Point"},"name":"Killarney Rose"}
{"location":{"coordinates":[-73.8216767,40.6689548],"type":"Point"},"name":"Don Peppe"}
{"location":{"coordinates":[-73.9250442,40.5595462],"type":"Point"},"name":"Blarney Castle"}
{"location":{"coordinates":[-73.955074,40.599217],"type":"Point"},"name":"Three Star Restaurant"}
{"location":{"coordinates":[-73.98926,40.7509054],"type":"Point"},"name":"Blarney Rock"}
{"location":{"coordinates":[-73.98306099999999,40.7441419],"type":"Point"},"name":"Desmond'S Tavern"}
{"location":{"coordinates":[-73.8204154,40.7242443],"type":"Point"},"name":"Naomi Kosher Pizza"}
{"location":{"coordinates":[-73.9396213,40.5841703],"type":"Point"},"name":"Roll-N-Roaster"}
{"location":{"coordinates":[-74.0016583,40.7319679],"type":"Point"},"name":"Tio Pepe"}
{"location":{"coordinates":[-73.9420751,40.6002442],"type":"Point"},"name":"Brennan \u0026 Carr"}
{"location":{"coordinates":[-73.9002615,40.885186],"type":"Point"},"name":"The Punch Bowl"}
{"location":{"coordinates":[-73.8700163,40.7504734],"type":"Point"},"name":"Jardin De China Rest"}
{"location":{"coordinates":[-73.8236419,40.7261682],"type":"Point"},"name":"Irish Cottage"}
{"location":{"coordinates":[-74.0137007,40.7062029],"type":"Point"},"name":"Blarney Stone"}
{"location":{"coordinates":[-73.8221418,40.7272376],"type":"Point"},"name":"Shimons Kosher Pizza"}
{"location":{"coordinates":[-74.0027865,40.7340505],"type":"Point"},"name":"The Riviera Cafe"}
{"location":{"coordinates":[-73.9927131,40.6984887],"type":"Point"},"name":"Fascati'S Pizzeria"}
{"location":{"coordinates":[-73.97598099999999,40.745132],"type":"Point"},"name":"Baby Bo'S Burritos"}
{"location":{"coordinates":[-73.9690789,40.7594184],"type":"Point"},"name":"Shun Lee Palace Restaurant"}
{"location":{"coordinates":[-74.11223799999999,40.629819],"type":"Point"},"name":"Li Greci'S Staaten Restaurant"}
{"location":{"coordinates":[-73.9300062,40.5943553],"type":"Point"},"name":"Tamaqua"}
{"location":{"coordinates":[-73.9168424,40.8401362],"type":"Point"},"name":"Munchtime"}
{"location":{"coordinates":[-73.74292179999999,40.7305714],"type":"Point"},"name":"Cara Mia"}
{"location":{"coordinates":[-73.8194559,40.8899176],"type":"Point"},"name":"Ihop"}
{"location":{"coordinates":[-73.809167,40.705421],"type":"Point"},"name":"Maloney'S Bar"}
{"location":{"coordinates":[-74.10465599999999,40.58834],"type":"Point"},"name":"Richmond County Country Club"}
{"location":{"coordinates":[-73.8845166,40.744772],"type":"Point"},"name":"La Fusta Restaurant"}
{"location":{"coordinates":[-73.9827418,40.7655827],"type":"Point"},"name":"Patsy'S Italian Restaurant"}
{"location":{"coordinates":[-73.8513114,40.8316981],"type":"Point"},"name":"Lulu'S Coffee Shop"}
{"location":{"coordinates":[-73.960573,40.760982],"type":"Point"},"name":"Dangerfield'S Night Club"}
{"location":{"coordinates":[-74.00065800000002,40.735114],"type":"Point"},"name":"El Charro Espanol"}
{"location":{"coordinates":[-73.9556394,40.768679],"type":"Point"},"name":"Finnegan'S Wake"}
{"location":{"coordinates":[-73.9907801,40.6188665],"type":"Point"},"name":"Da Vinci Pizza"}
{"location":{"coordinates":[-73.9681178,40.678776],"type":"Point"},"name":"Mitchell'S Restaurant"}
{"location":{"coordinates":[-73.979839,40.739796],"type":"Point"},"name":"Mexico Lindo Restaurant"}
{"location":{"coordinates":[-73.815175,40.8137649],"type":"Point"},"name":"Marina Delray"}
{"location":{"coordinates":[-73.99682299999999,40.753182],"type":"Point"},"name":"Twins Pub"}
{"location":{"coordinates":[-73.9270926,40.6142428],"type":"Point"},"name":"New Floridian Diner"}
{"location":{"coordinates":[-74.03345,40.612598],"type":"Point"},"name":"Narrows Coffee Shop"}
{"location":{"coordinates":[-74.0029643,40.7231081],"type":"Point"},"name":"Broome Street Bar"}
{"location":{"coordinates":[-73.9121201,40.7749286],"type":"Point"},"name":"O'Hanlon'S Pub"}
{"location":{"coordinates":[-73.90364869999999,40.74133339999999],"type":"Point"},"name":"Charlies Sports Bar"}
{"location":{"coordinates":[-73.9593019,40.77105400000001],"type":"Point"},"name":"Jg Melon Restaurant"}
{"location":{"coordinates":[-73.7775242,40.778475],"type":"Point"},"name":"Jack'S Pizza \u0026 Pasta"}
{"location":{"coordinates":[-74.0084936,40.7258072],"type":"Point"},"name":"Emerald Pub"}
{"location":{"coordinates":[-73.9788694,40.7665961],"type":"Point"},"name":"Tap Room"}
{"location":{"coordinates":[-73.9788694,40.7665961],"type":"Point"},"name":"Cocktail Room (Nyac)"}
{"location":{"coordinates":[-73.98557920000002,40.7686093],"type":"Point"},"name":"Flame Restaurant Coffee House"}
{"location":{"coordinates":[-73.9629729,40.7638694],"type":"Point"},"name":"Jackson Hole"}
{"location":{"coordinates":[-73.8811834,40.7017759],"type":"Point"},"name":"Zum Stammtisch"}
{"location":{"coordinates":[-73.985535,40.730605],"type":"Point"},"name":"John'S Restaurant"}
{"location":{"coordinates":[-73.988991,40.728848],"type":"Point"},"name":"Grassroot Tavern"}
{"location":{"coordinates":[-74.1350211,40.6369042],"type":"Point"},"name":"Buddy'S Wonder Bar"}
{"location":{"coordinates":[-73.876876,40.703885],"type":"Point"},"name":"The Assembly Bar"}
{"location":{"coordinates":[-73.9870818,40.7523004],"type":"Point"},"name":"Mr Broadway Kosher Restaurant"}
{"location":{"coordinates":[-73.911784,40.764766],"type":"Point"},"name":"Piccola Venezia"}
{"location":{"coordinates":[-74.1003379,40.5655379],"type":"Point"},"name":"Ni-Ni'S Cafe"}
{"location":{"coordinates":[-73.9215284,40.8678204],"type":"Point"},"name":"Capitol Restaurant"}
{"location":{"coordinates":[-73.9550129,40.768019],"type":"Point"},"name":"Malaga Restaurant"}
{"location":{"coordinates":[-73.977035,40.762307],"type":"Point"},"name":"La Bonne Soupe Bistro"}
{"location":{"coordinates":[-73.9672945,40.7561212],"type":"Point"},"name":"Mimis Restaurant \u0026 Bar"}
{"location":{"coordinates":[-73.83856999999999,40.655669],"type":"Point"},"name":"Lenny'S Clam Bar"}
{"location":{"coordinates":[-73.9542568,40.7641379],"type":"Point"},"name":"Griffis Faculty Club"}
{"location":{"coordinates":[-73.82629709999999,40.700598],"type":"Point"},"name":"Little Brown Jug"}
{"location":{"coordinates":[-73.8305269,40.7089494],"type":"Point"},"name":"Dani Pizza And Restaurant"}
{"location":{"coordinates":[-73.98185529999999,40.7782266],"type":"Point"},"name":"Gray'S Papaya"}
{"location":{"coordinates":[-73.95802549999999,40.6487475],"type":"Point"},"name":"Mcdonald'S"}
{"location":{"coordinates":[-73.95006049999999,40.5838274],"type":"Point"},"name":"El Greco Diner"}
{"location":{"coordinates":[-74.00259299999999,40.7324849],"type":"Point"},"name":"One If By Land Two If By Sea"}
{"location":{"coordinates":[-73.8618426,40.6797488],"type":"Point"},"name":"Mcdonald'S"}
{"location":{"coordinates":[-73.9819129,40.77151449999999],"type":"Point"},"name":"Fiorellos"}
{"location":{"coordinates":[-73.9812843,40.5947365],"type":"Point"},"name":"Lb Spumoni Gardens"}
{"location":{"coordinates":[-73.8344778,40.7692995],"type":"Point"},"name":"Amore Pizzeria \u0026 Restaurant"}
{"location":{"coordinates":[-73.86697,40.89794699999999],"type":"Point"},"name":"The Lark'S Nest"}
{"location":{"coordinates":[-73.8786113,40.8502883],"type":"Point"},"name":"Terrace Cafe"}
{"location":{"coordinates":[-73.8786113,40.8502883],"type":"Point"},"name":"African Terrace"}
{"location":{"coordinates":[-73.8786113,40.8502883],"type":"Point"},"name":"Cool Zone"}
{"location":{"coordinates":[-73.8786113,40.8502883],"type":"Point"},"name":"African Market (Baboon Cafe)"}
{"location":{"coordinates":[-73.8786113,40.8502883],"type":"Point"},"name":"Beaver Pond"}
{"location":{"coordinates":[-74.1005771,40.6134163],"type":"Point"},"name":"Roadhouse Restaurant"}
{"location":{"coordinates":[-73.971128,40.749869],"type":"Point"},"name":"Ford Foundation Cafeteria"}
{"location":{"coordinates":[-74.00066699999999,40.736224],"type":"Point"},"name":"Elephant \u0026 Castle"}
{"location":{"coordinates":[-73.97705599999999,40.752998],"type":"Point"},"name":"Oyster Bar"}
{"location":{"coordinates":[-73.98431219999999,40.7258174],"type":"Point"},"name":"Cherry Tavern"}
{"location":{"coordinates":[-73.9827221,40.7561037],"type":"Point"},"name":"Red Flame Diner"}
{"location":{"coordinates":[-74.099018,40.58116500000001],"type":"Point"},"name":"Colonnade Diner"}
{"location":{"coordinates":[-73.9537859,40.775493],"type":"Point"},"name":"Brady'S Bar"}
{"location":{"coordinates":[-73.9181846,40.6157107],"type":"Point"},"name":"Mill Basin Kosher Deli"}
{"location":{"coordinates":[-73.977114,40.756295],"type":"Point"},"name":"Maggies Place"}
{"location":{"coordinates":[-74.0062401,40.7397546],"type":"Point"},"name":"Da Silvano Restaurant"}
{"location":{"coordinates":[-73.9765607,40.7443236],"type":"Point"},"name":"Benjamin"}
{"location":{"coordinates":[-73.984838,40.756594],"type":"Point"},"name":"Jimmy'S Corner"}
{"location":{"coordinates":[-73.9789394,40.6429349],"type":"Point"},"name":"Denny'S Pub"}
{"location":{"coordinates":[-74.00340299999999,40.733235],"type":"Point"},"name":"Maries Crisis Cafe"}
{"location":{"coordinates":[-74.00341019999999,40.7335084],"type":"Point"},"name":"Boots \u0026 Saddle Bar"}
{"location":{"coordinates":[-74.0078144,40.6202393],"type":"Point"},"name":"New Parkway Restaurant"}
{"location":{"coordinates":[153.1628795,-28.0168595],"type":"Point"},"name":"Sammy'S Steakhouse"}
{"location":{"coordinates":[-74.000399,40.740848],"type":"Point"},"name":"Cafe Riazor"}
{"location":{"coordinates":[-73.9714599,40.759647],"type":"Point"},"name":"The Brook"}
{"location":{"coordinates":[-73.998254,40.7179289],"type":"Point"},"name":"Il Cortile Restaurant"}
{"location":{"coordinates":[-74.002139,40.7261357],"type":"Point"},"name":"Raouls"}
{"location":{"coordinates":[-73.94347599999999,40.718386],"type":"Point"},"name":"Frost Restaurant"}
{"location":{"coordinates":[-73.97691499999999,40.757028],"type":"Point"},"name":"Hatsuhana Restaurant"}
{"location":{"coordinates":[-73.9668354,40.7568328],"type":"Point"},"name":"La Mangeoire"}
{"location":{"coordinates":[-73.814835,40.7288261],"type":"Point"},"name":"Valentino'S Pizza"}
{"location":{"coordinates":[-73.970169,40.764834],"type":"Point"},"name":"Viand Coffee Shop"}
{"location":{"coordinates":[-73.970668,40.751453],"type":"Point"},"name":"Palm Too"}
{"location":{"coordinates":[-91.5971285,41.6823902],"type":"Point"},"name":"Steve'S Coffee Shop"}
{"location":{"coordinates":[-73.9100082,40.8863835],"type":"Point"},"name":"Blue Bay Restaurant"}
{"location":{"coordinates":[-73.9717,40.756457],"type":"Point"},"name":"Nada-Sushi"}
{"location":{"coordinates":[-73.942599,40.67096],"type":"Point"},"name":"The Hytes Bar"}
{"location":{"coordinates":[-73.7796156,40.7298006],"type":"Point"},"name":"P.J.' S"}
{"location":{"coordinates":[-73.9486257,40.7813724],"type":"Point"},"name":"Reif'S Tavern"}
{"location":{"coordinates":[-74.1018239,40.630788],"type":"Point"},"name":"Jody'S Club"}
{"location":{"coordinates":[-73.8335566,40.7703224],"type":"Point"},"name":"Whitestone Lanes"}
{"location":{"coordinates":[-73.8818014,40.7347681],"type":"Point"},"name":"John'S Pizzeria"}
{"location":{"coordinates":[-73.790804,40.8541848],"type":"Point"},"name":"Seashore Restaurant"}
{"location":{"coordinates":[-73.76078199999999,40.761876],"type":"Point"},"name":"Marbella Restaurant"}
{"location":{"coordinates":[-74.00041689999999,40.7302678],"type":"Point"},"name":"Caffe Reggio"}
{"location":{"coordinates":[-73.984126,40.7567949],"type":"Point"},"name":"Cafe Un Deux Trois"}
{"location":{"coordinates":[-73.88228649999999,40.6481972],"type":"Point"},"name":"Armando'S Pizza"}
{"location":{"coordinates":[-73.9818416,40.7760336],"type":"Point"},"name":"Dan Tempura"}
{"location":{"coordinates":[-73.994428,40.7320132],"type":"Point"},"name":"Knickerbocker Bar \u0026 Grill"}
{"location":{"coordinates":[-73.9873049,40.7592843],"type":"Point"},"name":"Pergola Des Artistes"}
{"location":{"coordinates":[-73.9808063,40.6895078],"type":"Point"},"name":"Mcdonald'S"}
{"location":{"coordinates":[-73.9735762,40.74754],"type":"Point"},"name":"El Pote Espanol"}
{"location":{"coordinates":[-73.94523509999999,40.7177182],"type":"Point"},"name":"Cafe Capri"}
{"location":{"coordinates":[-73.99472279999999,40.703195],"type":"Point"},"name":"The River Cafe"}
{"location":{"coordinates":[-74.012376,40.703721],"type":"Point"},"name":"White Horse Tavern"}
{"location":{"coordinates":[-73.85534559999999,40.8426433],"type":"Point"},"name":"Bronx Grill"}
{"location":{"coordinates":[-74.00893959999999,40.7151413],"type":"Point"},"name":"Mudville Saloon"}
{"location":{"coordinates":[-73.9321666,40.6632351],"type":"Point"},"name":"White Castle"}
{"location":{"coordinates":[-73.7826735,40.8377713],"type":"Point"},"name":"Johnny'S Reef Restaurant"}
{"location":{"coordinates":[-72.7329266,41.3099228],"type":"Point"},"name":"White Castle"}
{"location":{"coordinates":[-73.92126499999999,40.743009],"type":"Point"},"name":"White Castle"}
{"location":{"coordinates":[-73.993031,40.6417669],"type":"Point"},"name":"White Castle"}
{"location":{"coordinates":[-74.00184349999999,40.684236],"type":"Point"},"name":"Ferdinando'S Restaurant"}
{"location":{"coordinates":[-73.8451846,40.7200906],"type":"Point"},"name":"Mcdonald'S"}
{"location":{"coordinates":[-73.9623333,40.7757194],"type":"Point"},"name":"Viand Cafe"}
{"location":{"coordinates":[-73.9624221,40.77620840000001],"type":"Point"},"name":"Nectar Coffee Shop"}
{"location":{"coordinates":[-74.0030657,40.7230087],"type":"Point"},"name":"The Cupping Room"}
{"location":{"coordinates":[-73.9308722,40.656262],"type":"Point"},"name":"Mcdonald'S"}
{"location":{"coordinates":[-73.9866918,40.7364597],"type":"Point"},"name":"Pete'S Tavern"}
{"location":{"coordinates":[-73.7566136,40.7483444],"type":"Point"},"name":"Gino'S Pizzeria"}
{"location":{"coordinates":[-74.00200099999999,40.7285929],"type":"Point"},"name":"Villa Mosconi Restaurant"}
{"location":{"coordinates":[-74.0075542,40.7077614],"type":"Point"},"name":"Jim Brady'S Restaurant"}
{"location":{"coordinates":[-73.9035553,40.878342],"type":"Point"},"name":"P \u0026 K'S Grill"}
{"location":{"coordinates":[-73.9030535,40.8812538],"type":"Point"},"name":"Mcdonald'S"}
{"location":{"coordinates":[-73.9395471,40.8420198],"type":"Point"},"name":"Reme Restaurant"}
{"location":{"coordinates":[-73.9598324,40.7798381],"type":"Point"},"name":"The New Amity Restaurant"}
{"location":{"coordinates":[-74.00041259999999,40.7315763],"type":"Point"},"name":"Volare Restaurant"}
{"location":{"coordinates":[-73.97212999999999,40.7528838],"type":"Point"},"name":"Sparks Steak House"}
{"location":{"coordinates":[-73.807954,40.715159],"type":"Point"},"name":"The Dart Inn"}
{"location":{"coordinates":[-73.951199,40.7166026],"type":"Point"},"name":"Bamonte'S Restaurant"}
{"location":{"coordinates":[-73.9996841,40.7543101],"type":"Point"},"name":"Mcdonald'S"}
{"location":{"coordinates":[-73.8456653,40.7823455],"type":"Point"},"name":"Pizza Town"}
{"location":{"coordinates":[-73.86720489999999,40.8977501],"type":"Point"},"name":"John Mulligan'S Fireside Pub"}
{"location":{"coordinates":[-73.759249,40.761574],"type":"Point"},"name":"Burger King"}
{"location":{"coordinates":[-74.0094737,40.7258405],"type":"Point"},"name":"Ear Inn"}
{"location":{"coordinates":[-73.89707140000002,40.7543896],"type":"Point"},"name":"Burger King"}
{"location":{"coordinates":[-73.8206678,40.7647441],"type":"Point"},"name":"Burger King"}
{"location":{"coordinates":[-73.977597,40.779593],"type":"Point"},"name":"Mughlai Restaurant"}
{"location":{"coordinates":[-73.9581492,40.7177363],"type":"Point"},"name":"Greenpoint Tavern"}
{"location":{"coordinates":[-74.1680654,40.5595469],"type":"Point"},"name":"Mcdonald'S"}
{"location":{"coordinates":[-73.922642,40.701015],"type":"Point"},"name":"Tony'S Pizzeria"}
{"location":{"coordinates":[-73.9788758,40.7491708],"type":"Point"},"name":"Rossini'S"}
{"location":{"coordinates":[-73.90725640000001,40.7601082],"type":"Point"},"name":"Pat'S Stationary"}
{"location":{"coordinates":[-73.96408199999999,40.7741339],"type":"Point"},"name":"Three Guy'S Restaurant"}
{"location":{"coordinates":[-73.9574128,40.7701235],"type":"Point"},"name":"Cucina Vivolo"}
{"location":{"coordinates":[-73.986685,40.73756400000001],"type":"Point"},"name":"The Players Club"}
{"location":{"coordinates":[-74.0007509,40.7287609],"type":"Point"},"name":"Cafe Espanol"}
{"location":{"coordinates":[-73.7310899,40.7603325],"type":"Point"},"name":"Tjk Cafe \u0026 Restaurant"}
{"location":{"coordinates":[-73.9704988,40.7552269],"type":"Point"},"name":"Smith \u0026 Wollensky"}
{"location":{"coordinates":[-73.802319,40.780748],"type":"Point"},"name":"Mcdonald'S"}
{"location":{"coordinates":[-74.00057799999999,40.730204],"type":"Point"},"name":"Olive Tree Cafe \u0026 Comedy Cellar"}
{"location":{"coordinates":[-74.146976,40.625178],"type":"Point"},"name":"Perkins Family Restaurant \u0026 Bakery"}
{"location":{"coordinates":[-73.70073909999999,40.73895539999999],"type":"Point"},"name":"Burger King"}
{"location":{"coordinates":[-73.9195106,40.6527642],"type":"Point"},"name":"Burger King"}
{"location":{"coordinates":[-73.951172,40.7773139],"type":"Point"},"name":"Tokubei 86"}
{"location":{"coordinates":[-73.9491317,40.7445755],"type":"Point"},"name":"Manducatis"}
{"location":{"coordinates":[-73.792701,40.7702099],"type":"Point"},"name":"Divers Cove"}
{"location":{"coordinates":[-73.85223080000002,40.7109144],"type":"Point"},"name":"Sizzler"}
{"location":{"coordinates":[-73.96123879999999,40.635193],"type":"Point"},"name":"Mama Lucia"}
{"location":{"coordinates":[-73.98621539999999,40.7350907],"type":"Point"},"name":"Mariella Pizza"}
{"location":{"coordinates":[-73.9832993,40.76754440000001],"type":"Point"},"name":"Coliseum Bar Restaurant"}
{"location":{"coordinates":[-73.79014660000001,40.769692],"type":"Point"},"name":"Vinny'S Pizza"}
{"location":{"coordinates":[-73.9633849,40.625169],"type":"Point"},"name":"Kosher Delight"}
{"location":{"coordinates":[-73.99283419999999,40.75885830000001],"type":"Point"},"name":"West Bank Cafe"}
{"location":{"coordinates":[-73.972235,40.758066],"type":"Point"},"name":"The Four Seasons"}
{"location":{"coordinates":[-73.734425,40.7723579],"type":"Point"},"name":"La Baraka Restaurant"}
{"location":{"coordinates":[-73.984858,40.631394],"type":"Point"},"name":"Dairy Luncheonette"}
{"location":{"coordinates":[-73.9828058,40.7150766],"type":"Point"},"name":"Zafi'S Luncheonette"}
{"location":{"coordinates":[-73.9788552,40.6109657],"type":"Point"},"name":"La Palina Restaurant"}
{"location":{"coordinates":[-74.1321,40.61266000000001],"type":"Point"},"name":"Schaffer'S Tavern"}
{"location":{"coordinates":[-74.00529,40.73302899999999],"type":"Point"},"name":"Ty'S"}
{"location":{"coordinates":[-73.7363139,40.767005],"type":"Point"},"name":"Aunt Bella'S Rest Of Little Neck"}
{"location":{"coordinates":[-73.9321411,40.6094715],"type":"Point"},"name":"Mariner Inn"}
{"location":{"coordinates":[-74.1235473,40.6215341],"type":"Point"},"name":"Exclusive Catering"}
{"location":{"coordinates":[-73.78421000000002,40.7577566],"type":"Point"},"name":"North Shore Diner"}
{"location":{"coordinates":[-74.028273,40.62951959999999],"type":"Point"},"name":"Green House Cafe"}
{"location":{"coordinates":[-73.82339809999999,40.8276846],"type":"Point"},"name":"Mcdonald'S"}
{"location":{"coordinates":[-73.958372,40.7420277],"type":"Point"},"name":"Water Front Crab House"}
{"location":{"coordinates":[-74.0060152,40.7372653],"type":"Point"},"name":"La Ripaille Restaurant"}
{"location":{"coordinates":[-74.1408495,40.5441055],"type":"Point"},"name":"Marina Cafe"}
{"location":{"coordinates":[-73.958885,40.7745559],"type":"Point"},"name":"Don Filippo Restaurant"}
{"location":{"coordinates":[-73.8664386,40.7319364],"type":"Point"},"name":"Burger King"}
{"location":{"coordinates":[-73.9245566,40.7441786],"type":"Point"},"name":"Dazies Restaurant"}
{"location":{"coordinates":[-73.89310739999999,40.7545576],"type":"Point"},"name":"Triestes Restaurant"}
{"location":{"coordinates":[-73.924072,40.76108900000001],"type":"Point"},"name":"Omonia Cafe"}
{"location":{"coordinates":[-73.9782725,40.7624022],"type":"Point"},"name":"Murals On 54/Randolphs'S"}
{"location":{"coordinates":[-73.931262,40.598023],"type":"Point"},"name":"Veterans Of Foreign Wars Post #107 Canteen"}
{"location":{"coordinates":[-73.990556,40.749722],"type":"Point"},"name":"Caruso Pizza #2"}
{"location":{"coordinates":[-73.933605,40.669476],"type":"Point"},"name":"Tropical House Baking Co."}
{"location":{"coordinates":[-73.780574,40.6679415],"type":"Point"},"name":"Burger King"}
{"location":{"coordinates":[-73.8128627,40.7931101],"type":"Point"},"name":"Clinton Restaurant"}
{"location":{"coordinates":[-73.958529,40.766908],"type":"Point"},"name":"Shabu-Shabu 70 Restaurant"}
{"location":{"coordinates":[-73.87575,40.8294396],"type":"Point"},"name":"Yankee Jz Pizza"}
{"location":{"coordinates":[-74.0986428,40.5942955],"type":"Point"},"name":"Chen'S Chinese"}
{"location":{"coordinates":[-73.993539,40.7474898],"type":"Point"},"name":"The Greek Corner"}
{"location":{"coordinates":[-73.97328379999999,40.7588047],"type":"Point"},"name":"Racquet \u0026 Tennis Club"}
{"location":{"coordinates":[-74.031688,40.6374532],"type":"Point"},"name":"Casa Pepe"}
{"location":{"coordinates":[-73.97831029999999,40.7632329],"type":"Point"},"name":"Astro Restaurant"}
{"location":{"coordinates":[-74.1690735,40.5589805],"type":"Point"},"name":"Golden Dove Diner"}
{"location":{"coordinates":[-74.0018619,40.7288849],"type":"Point"},"name":"Caffe Dante"}
{"location":{"coordinates":[-73.9777137,40.6433389],"type":"Point"},"name":"Korner Pizzeria"}
{"location":{"coordinates":[-73.992182,40.699702],"type":"Point"},"name":"Henry'S End"}
{"location":{"coordinates":[-74.0062401,40.7397546],"type":"Point"},"name":"Souen Restaurant"}
{"location":{"coordinates":[-73.98053949999999,40.7469315],"type":"Point"},"name":"Villa Berulia"}
{"location":{"coordinates":[-73.9840766,40.7628868],"type":"Point"},"name":"Victor'S Cafe"}
{"location":{"coordinates":[-74.0282415,40.6309663],"type":"Point"},"name":"Petes Pizzeria \u0026 Restaurant"}
{"location":{"coordinates":[-73.98646339999999,40.7507174],"type":"Point"},"name":"Keens Steakhouse"}
{"location":{"coordinates":[-73.97752600000001,40.745973],"type":"Point"},"name":"Bar 515"}
{"location":{"coordinates":[-73.8924962,40.7485672],"type":"Point"},"name":"Ready Penny Inn"}
{"location":{"coordinates":[-73.99914799999999,40.729735],"type":"Point"},"name":"Il Mulino"}
{"location":{"coordinates":[-73.9651212,40.7603438],"type":"Point"},"name":"Felidia Restaurant"}
{"location":{"coordinates":[-73.9216671,40.6447189],"type":"Point"},"name":"Mcdonald'S"}
{"location":{"coordinates":[-73.9993545,40.7286288],"type":"Point"},"name":"The Malt House"}
{"location":{"coordinates":[-73.9812519,40.7728753],"type":"Point"},"name":"Shun Lee"}
{"location":{"coordinates":[-73.90401159999999,40.8803571],"type":"Point"},"name":"Ihop"}
{"location":{"coordinates":[-74.0318242,40.62062239999999],"type":"Point"},"name":"Bridgeview Diner"}
{"location":{"coordinates":[-73.894071,40.726984],"type":"Point"},"name":"Burke'S Pub"}
{"location":{"coordinates":[-73.884337,40.733269],"type":"Point"},"name":"Hill Tap Tavern"}
{"location":{"coordinates":[-73.9865289,40.7606981],"type":"Point"},"name":"Pongsri Thai Restaurant"}
{"location":{"coordinates":[-73.967288,40.757018],"type":"Point"},"name":"Primavera Pizza \u0026 Pasta"}
{"location":{"coordinates":[-73.78309349999999,40.8374725],"type":"Point"},"name":"Tony'S Pier Restaurant"}
{"location":{"coordinates":[-73.95285799999999,40.77684199999999],"type":"Point"},"name":"Elio'S"}
{"location":{"coordinates":[-73.832183,40.84710099999999],"type":"Point"},"name":"Quality Cafe \u0026 Restaurant"}
{"location":{"coordinates":[-73.9254891,40.59284479999999],"type":"Point"},"name":"Victoria Pizza"}
{"location":{"coordinates":[-73.9949622,40.7496446],"type":"Point"},"name":"Molly Wee Pub"}
{"location":{"coordinates":[-73.96864699999999,40.755183],"type":"Point"},"name":"La Mediterranee Restaurant"}
{"location":{"coordinates":[-73.995662,40.748717],"type":"Point"},"name":"Kasteli Ii"}
{"location":{"coordinates":[-73.91535139999999,40.6087346],"type":"Point"},"name":"El Caribe"}
{"location":{"coordinates":[-74.0019729,40.7260047],"type":"Point"},"name":"Omen Japanese Cuisine"}
{"location":{"coordinates":[-73.8122829,40.727543],"type":"Point"},"name":"Mcdonald'S"}
{"location":{"coordinates":[-73.9917897,40.6913932],"type":"Point"},"name":"Mcdonald'S"}
{"location":{"coordinates":[-73.96607999999999,40.7602774],"type":"Point"},"name":"Bar Vetro"}
{"location":{"coordinates":[-73.982506,40.762621],"type":"Point"},"name":"Rosie O'Grady Restaurant"}
{"location":{"coordinates":[-73.807086,40.6988],"type":"Point"},"name":"Europa Go-Go Dancing"}
{"location":{"coordinates":[-73.9982079,40.7180815],"type":"Point"},"name":"Casa Bella"}
{"location":{"coordinates":[-74.0095812,40.71463749999999],"type":"Point"},"name":"Raccoon Lodge"}
{"location":{"coordinates":[-73.9883256,40.76344890000001],"type":"Point"},"name":"Chez Napolean"}
{"location":{"coordinates":[-73.9550857,40.72063869999999],"type":"Point"},"name":"Turkey'S Nest Tavern"}
{"location":{"coordinates":[-73.8507489,40.832069],"type":"Point"},"name":"Sabrosura Restaurant"}
{"location":{"coordinates":[-73.8520417,40.6666793],"type":"Point"},"name":"La Villa De Pizza \u0026 Restaurant"}
{"location":{"coordinates":[-73.8426307,40.6808917],"type":"Point"},"name":"Ozone Pizzeria"}
{"location":{"coordinates":[-73.913591,40.756706],"type":"Point"},"name":"Ponticello Restaurant"}
{"location":{"coordinates":[-73.96643449999999,40.7641697],"type":"Point"},"name":"Agra Restaurant"}
{"location":{"coordinates":[-73.9813814,40.76306150000001],"type":"Point"},"name":"Lindy'S"}
{"location":{"coordinates":[-73.947847,40.775478],"type":"Point"},"name":"Arturo'S"}
{"location":{"coordinates":[-73.9500845,40.8064061],"type":"Point"},"name":"Paris Blues"}
{"location":{"coordinates":[-73.9977952,40.7353195],"type":"Point"},"name":"Gene'S Resturant"}
{"location":{"coordinates":[-73.9367236,40.5842786],"type":"Point"},"name":"Maria Ristorante"}
{"location":{"coordinates":[-73.993406,40.730003],"type":"Point"},"name":"Cozy Soup \u0026 Burger"}
{"location":{"coordinates":[-73.74878939999999,40.7271425],"type":"Point"},"name":"Neron'S Pizza"}
{"location":{"coordinates":[-73.9977997,40.6118897],"type":"Point"},"name":"Villa Fiorita"}
{"location":{"coordinates":[-74.0065917,40.609992],"type":"Point"},"name":"Vegas Diner"}
{"location":{"coordinates":[-73.840374,40.683319],"type":"Point"},"name":"Moms Luncheonette"}
{"location":{"coordinates":[-73.9801846,40.7801316],"type":"Point"},"name":"Candle Bar"}
{"location":{"coordinates":[-73.9558969,40.778154],"type":"Point"},"name":"Tevere 84"}
{"location":{"coordinates":[-73.990556,40.749722],"type":"Point"},"name":"Haagen-Dazs"}
{"location":{"coordinates":[-73.782866,40.757529],"type":"Point"},"name":"Fontana Famous Pizza \u0026 Gyro"}
{"location":{"coordinates":[-92.73084399999999,41.7461462],"type":"Point"},"name":"Charlie'S Mom Chinese Restaurant"}
{"location":{"coordinates":[-73.955387,40.772368],"type":"Point"},"name":"Lusardi'S Restaurant"}
{"location":{"coordinates":[-74.1069208,40.6302784],"type":"Point"},"name":"King'S Arms Restaurant"}
{"location":{"coordinates":[-73.8397963,40.7191179],"type":"Point"},"name":"Portofino"}
{"location":{"coordinates":[-74.00064259999999,40.7309096],"type":"Point"},"name":"Blue Note Jazz"}
{"location":{"coordinates":[-73.9724015,40.7403386],"type":"Point"},"name":"The Water Club"}
{"location":{"coordinates":[-73.9957111,40.6821943],"type":"Point"},"name":"Marco Polo Ristorante"}
{"location":{"coordinates":[-74.0023353,40.7333573],"type":"Point"},"name":"Manhattan Monster"}
{"location":{"coordinates":[-73.97911239999999,40.7834791],"type":"Point"},"name":"American Museum Of Natural History Food Court"}
{"location":{"coordinates":[-84.1899005,39.7642657],"type":"Point"},"name":"War Memorial Ice Skating Rink"}
{"location":{"coordinates":[-74.001763,40.7282465],"type":"Point"},"name":"Chez Jaqueline"}
{"location":{"coordinates":[-73.9946329,40.690043],"type":"Point"},"name":"Tripoli Restaurant"}
{"location":{"coordinates":[-73.9612178,40.7684788],"type":"Point"},"name":"Pj Bernstein Deli \u0026 Restaurant"}
{"location":{"coordinates":[-73.980002,40.7659216],"type":"Point"},"name":"Pj Carney'S"}
{"location":{"coordinates":[-74.0001023,40.7276736],"type":"Point"},"name":"Tomoe Sushi"}
{"location":{"coordinates":[-74.3731727,40.4404759],"type":"Point"},"name":"Water'S Edge Club"}
{"location":{"coordinates":[-73.9592644,40.8088612],"type":"Point"},"name":"Amsterdam Restaurant \u0026 Tapas Lounge"}
{"location":{"coordinates":[-73.79064389999999,40.8575687],"type":"Point"},"name":"Jp'S Waterside Restaurant"}
{"location":{"coordinates":[-73.83732549999999,40.57984829999999],"type":"Point"},"name":"Rogers Irish Tavern"}
{"location":{"coordinates":[-73.8657838,40.8544744],"type":"Point"},"name":"John \u0026 Joe Pizzeria \u0026 Restaurant"}
{"location":{"coordinates":[-73.8803351,40.7017284],"type":"Point"},"name":"Mcdonald'S"}
{"location":{"coordinates":[-73.9811382,40.7788729],"type":"Point"},"name":"Utopia Restaurant"}
{"location":{"coordinates":[-74.2078085,40.5427718],"type":"Point"},"name":"Sunset Pizzeria"}
{"location":{"coordinates":[-73.8047246,40.7328495],"type":"Point"},"name":"Napoli Pizza"}
{"location":{"coordinates":[-73.9774801,40.7461444],"type":"Point"},"name":"Jackson Hole"}
{"location":{"coordinates":[-74.027017,40.632575],"type":"Point"},"name":"Vesuvio Restaurant \u0026 Pizza"}
{"location":{"coordinates":[-73.7416329,40.6767449],"type":"Point"},"name":"Western Bakery"}
{"location":{"coordinates":[-73.971606,40.751148],"type":"Point"},"name":"Johns Cafe \u0026 Resturant"}
{"location":{"coordinates":[-74.0014102,40.7318195],"type":"Point"},"name":"Karavas Place"}
{"location":{"coordinates":[-73.983169,40.7774031],"type":"Point"},"name":"Cafe Luxembourg"}
{"location":{"coordinates":[-73.9070012,40.7090773],"type":"Point"},"name":"Windjammers Bar"}
{"location":{"coordinates":[-73.8153553,40.7394901],"type":"Point"},"name":"Dunkin' Donuts/Baskin' Robbins"}
{"location":{"coordinates":[-73.9689746,40.7979687],"type":"Point"},"name":"Broadway Restaurant"}
{"location":{"coordinates":[-73.94100100000001,40.798046],"type":"Point"},"name":"Cuchifrito"}
{"location":{"coordinates":[-73.8454959,40.7207511],"type":"Point"},"name":"Narita Japanese Restaurant"}
{"location":{"coordinates":[-73.9940325,40.681185],"type":"Point"},"name":"Red Rose"}
{"location":{"coordinates":[-74.00141959999999,40.7408836],"type":"Point"},"name":"Mary Ann'S"}
{"location":{"coordinates":[-73.89687649999999,40.8166811],"type":"Point"},"name":"Tony'S Pizza"}
{"location":{"coordinates":[-73.84938439999999,40.688197],"type":"Point"},"name":"Port O' Calls"}
{"location":{"coordinates":[-73.97256639999999,40.59727549999999],"type":"Point"},"name":"Fiorentino Ristorante"}
{"location":{"coordinates":[-73.9932049,40.7321769],"type":"Point"},"name":"Il Cantinori Restauraunt"}
{"location":{"coordinates":[-73.9896961,40.7516989],"type":"Point"},"name":"Andrews Coffee Shop"}
{"location":{"coordinates":[-73.8514393,40.693942],"type":"Point"},"name":"Mike'S Pub"}
{"location":{"coordinates":[-73.90092960000001,40.7137698],"type":"Point"},"name":"The Clubhouse"}
{"location":{"coordinates":[-73.9879627,40.7478473],"type":"Point"},"name":"Kang Suh Korean Restaurant"}
{"location":{"coordinates":[-73.8935099,40.7272902],"type":"Point"},"name":"Fame Diner"}
{"location":{"coordinates":[-73.93825489999999,40.5834295],"type":"Point"},"name":"Knights Of Baron Dekalb"}
{"location":{"coordinates":[-74.1092654,40.6379272],"type":"Point"},"name":"Union Hall"}
{"location":{"coordinates":[-73.965305,40.6064189],"type":"Point"},"name":"Kosher Hut Of Brooklyn"}
{"location":{"coordinates":[-73.9992986,40.7283881],"type":"Point"},"name":"Terra Blues"}
{"location":{"coordinates":[-73.97579000000002,40.786074],"type":"Point"},"name":"Caesar'S Palace"}
{"location":{"coordinates":[-73.8806546,40.7479695],"type":"Point"},"name":"Flamingo"}
{"location":{"coordinates":[-74.001094,40.729583],"type":"Point"},"name":"Monte'S"}
{"location":{"coordinates":[-73.9938232,40.7340887],"type":"Point"},"name":"Gotham Bar \u0026 Grill"}
{"location":{"coordinates":[-73.8676483,40.72214200000001],"type":"Point"},"name":"London Lennies"}
{"location":{"coordinates":[-83.8842292,30.6928463],"type":"Point"},"name":"Dunkin' Donuts"}
{"location":{"coordinates":[-73.9901605,40.7526176],"type":"Point"},"name":"Delmonico'S Kitchen"}
{"location":{"coordinates":[-73.977372,40.783934],"type":"Point"},"name":"Mcaleer'S Pub"}
{"location":{"coordinates":[-73.9888412,40.7296752],"type":"Point"},"name":"Hasaki Restaurant"}
{"location":{"coordinates":[-73.9592566,40.7711518],"type":"Point"},"name":"Mezzaluna"}
{"location":{"coordinates":[-73.980274,40.73489379999999],"type":"Point"},"name":"Cooper Town Diner"}
{"location":{"coordinates":[-73.9703093,40.7575104],"type":"Point"},"name":"Restuarant Nippon"}
{"location":{"coordinates":[-73.8675389,40.8977829],"type":"Point"},"name":"Aqueduct North"}
{"location":{"coordinates":[-74.0082408,40.7148452],"type":"Point"},"name":"Imperial Coffee House"}
{"location":{"coordinates":[-73.98527039999999,40.7589099],"type":"Point"},"name":"Mcdonald'S"}
{"location":{"coordinates":[-73.9616659,40.777365],"type":"Point"},"name":"E.A.T. Cafe"}
{"location":{"coordinates":[-73.8865891,40.7723001],"type":"Point"},"name":"Yankee Clipper"}
{"location":{"coordinates":[-73.8982405,40.8616283],"type":"Point"},"name":"Cuchifritos"}
{"location":{"coordinates":[-74.00290509999999,40.6312541],"type":"Point"},"name":"Rex Manor"}
{"location":{"coordinates":[-73.97775159999999,40.7510553],"type":"Point"},"name":"Club 101"}
{"location":{"coordinates":[-73.901496,40.885102],"type":"Point"},"name":"Riverdale Diner"}
{"location":{"coordinates":[-73.87812749999999,40.7126376],"type":"Point"},"name":"Carlos Pizza"}
{"location":{"coordinates":[-73.9991763,40.728369],"type":"Point"},"name":"The Bitter End"}
{"location":{"coordinates":[-73.98819809999999,40.7641429],"type":"Point"},"name":"Arriba Arriba"}
{"location":{"coordinates":[-73.9726244,40.6779037],"type":"Point"},"name":"Geido Restaurant"}
{"location":{"coordinates":[-73.974367,40.788002],"type":"Point"},"name":"Barney Greengrass"}
{"location":{"coordinates":[-73.97919759999999,40.76604930000001],"type":"Point"},"name":"Petrossian Restauraunt"}
{"location":{"coordinates":[-73.80112059999999,40.7128278],"type":"Point"},"name":"Annam Braham Restaurant"}
{"location":{"coordinates":[-73.9837907,40.7626833],"type":"Point"},"name":"Supernova-Novotel Hotel"}
{"location":{"coordinates":[-73.9979536,40.6914024],"type":"Point"},"name":"Montero Bar \u0026 Grill"}
{"location":{"coordinates":[-73.88814889999999,40.7011542],"type":"Point"},"name":"Pisa Pizzeria"}
{"location":{"coordinates":[-73.9820285,40.5753606],"type":"Point"},"name":"Pete'S Clam Stop"}
{"location":{"coordinates":[-73.9991998,40.7286624],"type":"Point"},"name":"Porto Bello Restaurant"}
{"location":{"coordinates":[-74.0015608,40.7319387],"type":"Point"},"name":"Burrito Loco"}
{"location":{"coordinates":[-73.9939366,40.7468282],"type":"Point"},"name":"Fit Cafeteria (Building A)"}
{"location":{"coordinates":[-73.9524969,40.748421],"type":"Point"},"name":"Riverhead Gentlemen'S Club"}
{"location":{"coordinates":[-73.9812553,40.6670051],"type":"Point"},"name":"Smiling Pizza"}
{"location":{"coordinates":[-73.964326,40.805416],"type":"Point"},"name":"Symposium Greek Restaurant"}
{"location":{"coordinates":[-73.9864626,40.7266739],"type":"Point"},"name":"Gandhi"}
{"location":{"coordinates":[-73.94130600000001,40.722332],"type":"Point"},"name":"Nina'S Restaurant Pizzeria"}
{"location":{"coordinates":[-73.98927979999999,40.72983199999999],"type":"Point"},"name":"Village Yokocho"}
{"location":{"coordinates":[-73.9932232,40.6974104],"type":"Point"},"name":"Clark'S Restaurant"}
{"location":{"coordinates":[-73.9723721,40.7506241],"type":"Point"},"name":"Pietros"}
{"location":{"coordinates":[-73.9837551,40.726019],"type":"Point"},"name":"Miss Lily'S 7A"}
{"location":{"coordinates":[-73.9950747,40.7257659],"type":"Point"},"name":"Noho Star Restaurant"}
{"location":{"coordinates":[-73.9627039,40.75896580000001],"type":"Point"},"name":"Rosa Mexicano"}
{"location":{"coordinates":[-74.1107786,40.6295647],"type":"Point"},"name":"Duffy'S"}
{"location":{"coordinates":[-74.01268830000001,40.7095273],"type":"Point"},"name":"O'Hara'S"}
{"location":{"coordinates":[-74.1468129,40.5760984],"type":"Point"},"name":"Latourette Golf Course"}
{"location":{"coordinates":[-73.8453754,40.7208791],"type":"Point"},"name":"Uno Chicago Grill"}
{"location":{"coordinates":[-74.0177228,40.615199],"type":"Point"},"name":"Dyker Beach Golf (Grill Room)"}
{"location":{"coordinates":[-73.94994129999999,40.67140699999999],"type":"Point"},"name":"Glenda'S Restaurant"}
{"location":{"coordinates":[-74.0054509,40.6018789],"type":"Point"},"name":"My Father'S Place"}
{"location":{"coordinates":[-73.974896,40.675678],"type":"Point"},"name":"Santa Fe Grill \u0026 Bar"}
{"location":{"coordinates":[-73.939728,40.841687],"type":"Point"},"name":"Coogan'S"}
{"location":{"coordinates":[-73.983622,40.72548],"type":"Point"},"name":"Sidewalk Bar \u0026 Restaurant"}
{"location":{"coordinates":[-74.0054378,40.653762],"type":"Point"},"name":"Mcdonald'S"}
{"location":{"coordinates":[-74.00298049999999,40.7317316],"type":"Point"},"name":"Caffe Vivaldi"}
{"location":{"coordinates":[-73.8537226,40.8427071],"type":"Point"},"name":"Castlehill Diner"}
{"location":{"coordinates":[-73.8172416,40.8195906],"type":"Point"},"name":"Tommy'S Pizza"}
{"location":{"coordinates":[-73.9692185,40.7645497],"type":"Point"},"name":"Regency Hotel"}
{"location":{"coordinates":[-73.96522089999999,40.7558205],"type":"Point"},"name":"Parnell'S Pub"}
{"location":{"coordinates":[-74.0042129,40.654029],"type":"Point"},"name":"La Fe Restaurant"}
{"location":{"coordinates":[-73.91471,40.8335421],"type":"Point"},"name":"Mom'S Fried Chicken"}
{"location":{"coordinates":[-73.98866199999999,40.769442],"type":"Point"},"name":"Ocean Dragon Restaurant"}
{"location":{"coordinates":[-73.832745,40.7149694],"type":"Point"},"name":"Cobblestone Pub"}
{"location":{"coordinates":[-73.99849569999999,40.7176369],"type":"Point"},"name":"Cha Cha'S Backyard Garden Bar \u0026 Cafe"}
{"location":{"coordinates":[-74.0321699,40.6213165],"type":"Point"},"name":"O'Sullivan'S Pub"}
{"location":{"coordinates":[-73.997387,40.722304],"type":"Point"},"name":"Spring St. Natural Restaurant"}
{"location":{"coordinates":[-74.0263399,40.6213638],"type":"Point"},"name":"Pizza Wagon"}
{"location":{"coordinates":[-73.98357949999999,40.7281865],"type":"Point"},"name":"Russian Turkish Baths"}
{"location":{"coordinates":[-74.0079669,40.737446],"type":"Point"},"name":"Tortilla Flats"}
{"location":{"coordinates":[-73.74848910000001,40.7683973],"type":"Point"},"name":"Il Toscano Ristorante"}
{"location":{"coordinates":[-73.9544887,40.7745702],"type":"Point"},"name":"Sistina Restaurant"}
{"location":{"coordinates":[-73.7668394,40.760345],"type":"Point"},"name":"Pier 25A Restaurant"}
{"location":{"coordinates":[-73.81401,40.786803],"type":"Point"},"name":"Verdi Restaurant"}
{"location":{"coordinates":[-73.7608857,40.7204516],"type":"Point"},"name":"Gaby'S Pizza"}
{"location":{"coordinates":[-74.0024972,40.7314926],"type":"Point"},"name":"Cornelia Street Cafe"}
{"location":{"coordinates":[-73.9817017,40.7614715],"type":"Point"},"name":"Le Bernardin"}
{"location":{"coordinates":[-74.0122263,40.7058609],"type":"Point"},"name":"The Grotto"}
{"location":{"coordinates":[-73.9314602,40.6704278],"type":"Point"},"name":"Tony'S Pizzeria"}
{"location":{"coordinates":[-73.953448,40.777126],"type":"Point"},"name":"Brandy'S Piano Bar"}
{"location":{"coordinates":[-74.1268188,40.5651822],"type":"Point"},"name":"Canlon'S Restaurant"}
{"location":{"coordinates":[-74.158427,40.626607],"type":"Point"},"name":"Real Madrid Restaurant"}
{"location":{"coordinates":[-73.975144,40.675441],"type":"Point"},"name":"Cousin John'S Cafe And Bakery"}
{"location":{"coordinates":[-73.8982704,40.8896923],"type":"Point"},"name":"Short Stop Restaurant"}
{"location":{"coordinates":[-73.97257479999999,40.7855756],"type":"Point"},"name":"Jackson Hole"}
{"location":{"coordinates":[-73.984752,40.763105],"type":"Point"},"name":"Russian Samovar"}
{"location":{"coordinates":[-73.829714,40.7587648],"type":"Point"},"name":"Barone Pizza"}
{"location":{"coordinates":[-73.982872,40.76280939999999],"type":"Point"},"name":"Flash Dancers"}
{"location":{"coordinates":[-74.16303719999999,40.60731],"type":"Point"},"name":"Pizza D'Oro"}
{"location":{"coordinates":[-73.9809789,40.7802374],"type":"Point"},"name":"Josie'S Restaurant"}
{"location":{"coordinates":[-73.99735199999999,40.719931],"type":"Point"},"name":"La Mela Restaurant"}
{"location":{"coordinates":[-73.82567900000001,40.7455975],"type":"Point"},"name":"Phil \u0026 Sons Restaurant \u0026 Pizzeria"}
{"location":{"coordinates":[-73.97746699999999,40.757261],"type":"Point"},"name":"Pj Morans"}
{"location":{"coordinates":[-73.7890858,40.7699617],"type":"Point"},"name":"Omega Coffee Shop"}
{"location":{"coordinates":[-73.9880305,40.7591348],"type":"Point"},"name":"Frankie \u0026 Johnnies Steakhouse"}
{"location":{"coordinates":[-73.9868393,40.73691240000001],"type":"Point"},"name":"Friend Of A Farmer"}
{"location":{"coordinates":[-74.02778909999999,40.6318755],"type":"Point"},"name":"Sancho'S Restaurant"}
{"location":{"coordinates":[-73.8696562,40.7501494],"type":"Point"},"name":"Dream Pizza"}
{"location":{"coordinates":[-73.88966429999999,40.6578505],"type":"Point"},"name":"Mcdonald'S"}
{"location":{"coordinates":[-74.0272951,40.6318285],"type":"Point"},"name":"India Passage Restaurant"}
{"location":{"coordinates":[-73.867181,40.8705092],"type":"Point"},"name":"Burger Barn Restaurant"}
{"location":{"coordinates":[-73.95097100000001,40.723595],"type":"Point"},"name":"Irene'S Place"}
{"location":{"coordinates":[-73.9871139,40.7290155],"type":"Point"},"name":"Veselka Restaurant"}
{"location":{"coordinates":[-73.8324138,40.75341179999999],"type":"Point"},"name":"Kanes Deli Diner"}
{"location":{"coordinates":[-73.88898209999999,40.65584459999999],"type":"Point"},"name":"White Castle"}
{"location":{"coordinates":[-73.9541457,40.6102692],"type":"Point"},"name":"J \u0026 R Pizza"}
{"location":{"coordinates":[-73.9935579,40.7585089],"type":"Point"},"name":"Chez Josephine"}
{"location":{"coordinates":[-73.9816053,40.7441474],"type":"Point"},"name":"Mishima Restaurant"}
{"location":{"coordinates":[-73.7128239,40.7363575],"type":"Point"},"name":"Dunkin' Donuts/Baskin Robbins"}
{"location":{"coordinates":[-73.90539919999999,40.7730596],"type":"Point"},"name":"Victory Sweet Shop"}
{"location":{"coordinates":[-74.009029,40.631093],"type":"Point"},"name":"Rocco'S Calamari"}
{"location":{"coordinates":[-73.993645,40.694843],"type":"Point"},"name":"Grand Canyon"}
{"location":{"coordinates":[-74.0283135,40.6294318],"type":"Point"},"name":"Cappuccino Cafe"}
{"location":{"coordinates":[-74.1013145,40.5912425],"type":"Point"},"name":"Carol'S Cafe"}
{"location":{"coordinates":[-73.985889,40.730473],"type":"Point"},"name":"Pangea Restaurant"}
{"location":{"coordinates":[-73.98635039999999,40.7596825],"type":"Point"},"name":"Cafe Edison"}
{"location":{"coordinates":[-74.00834669999999,40.7362217],"type":"Point"},"name":"Automatic Slims"}
{"location":{"coordinates":[-73.98384999999999,40.7290629],"type":"Point"},"name":"De Robertis Pastry Shop"}
{"location":{"coordinates":[-73.98789909999999,40.7292983],"type":"Point"},"name":"Cloister Cafe"}
{"location":{"coordinates":[-74.1369752,40.6118922],"type":"Point"},"name":"Dairy Palace"}
{"location":{"coordinates":[-73.9804898,40.6768216],"type":"Point"},"name":"200 Fifth Avenue Restaurant \u0026 Sports Bar"}
{"location":{"coordinates":[-73.964379,40.7567359],"type":"Point"},"name":"Jimbo'S Hamburger Place"}
{"location":{"coordinates":[-73.953676,40.775695],"type":"Point"},"name":"Va Bene"}
{"location":{"coordinates":[-73.98997,40.760897],"type":"Point"},"name":"Lattanzi"}
{"location":{"coordinates":[-73.7956093,40.75835319999999],"type":"Point"},"name":"Pizza Garden"}
{"location":{"coordinates":[-73.9555364,40.7849229],"type":"Point"},"name":"Island"}
{"location":{"coordinates":[-73.9763347,40.7575454],"type":"Point"},"name":"Sushiden"}
{"location":{"coordinates":[-73.8462304,40.8761099],"type":"Point"},"name":"Eastwood Manor"}
{"location":{"coordinates":[-73.91255009999999,40.7743581],"type":"Point"},"name":"Lefkos Pygos Cafe"}
{"location":{"coordinates":[-73.99556,40.748852],"type":"Point"},"name":"Salumeria Beillese/ Biricchino Rest"}
{"location":{"coordinates":[-73.97574639999999,40.687295],"type":"Point"},"name":"Academy Restauraunt"}
{"location":{"coordinates":[-73.9765199,40.7452545],"type":"Point"},"name":"Trattoria Alba"}
{"location":{"coordinates":[-73.9917184,40.6979881],"type":"Point"},"name":"Park Plaza Restaurant"}
{"location":{"coordinates":[-73.9772263,40.7493346],"type":"Point"},"name":"Sam'S Place"}
{"location":{"coordinates":[-73.98164460000001,40.7632783],"type":"Point"},"name":"Ray'S Pizza"}
{"location":{"coordinates":[-73.8429171,40.8411578],"type":"Point"},"name":"Ljubo'S Pizzeria"}
{"location":{"coordinates":[-74.031194,40.616655],"type":"Point"},"name":"Hunter'S Steak \u0026 Ale House"}
{"location":{"coordinates":[-74.1485484,40.6248044],"type":"Point"},"name":"Dakota Diner"}
{"location":{"coordinates":[-73.96160050000002,40.7639308],"type":"Point"},"name":"Primola Restaurant"}
{"location":{"coordinates":[-73.8421735,40.8794229],"type":"Point"},"name":"Wendy'S"}
{"location":{"coordinates":[-74.1603346,40.5454655],"type":"Point"},"name":"Country Donuts"}
{"location":{"coordinates":[-74.02853089999999,40.6289779],"type":"Point"},"name":"Sally \u0026 George'S Place"}
{"location":{"coordinates":[-73.9248952,40.7615312],"type":"Point"},"name":"Doral Donuts"}
{"location":{"coordinates":[-73.9237691,40.7470048],"type":"Point"},"name":"Jacks Ale House"}
{"location":{"coordinates":[-73.8574277,40.8366717],"type":"Point"},"name":"Venice Pizza"}
{"location":{"coordinates":[-73.99976319999999,40.7162194],"type":"Point"},"name":"Winnie'S Bar"}
{"location":{"coordinates":[-73.9821078,40.6658524],"type":"Point"},"name":"Pizza Plus"}
{"location":{"coordinates":[-73.9916396,40.7487243],"type":"Point"},"name":"Niles Restaurant"}
{"location":{"coordinates":[-74.1504413,40.5493122],"type":"Point"},"name":"Arirang Hibachi Steak House"}
{"location":{"coordinates":[-73.75767259999999,40.7538214],"type":"Point"},"name":"Oakland Cafeteria/Queensborough Community College"}
{"location":{"coordinates":[-73.901412,40.7003073],"type":"Point"},"name":"Tasty'S"}
{"location":{"coordinates":[-73.75767259999999,40.7538214],"type":"Point"},"name":"Q.B.Comm.College-Main Kitchen/Tiger Bites Pizza Section"}
{"location":{"coordinates":[-73.80845529999999,40.7869333],"type":"Point"},"name":"Erin'S Isle"}
{"location":{"coordinates":[-73.9310977,40.70359879999999],"type":"Point"},"name":"Tina'S Restaurant"}
{"location":{"coordinates":[-74.00318299999999,40.733443],"type":"Point"},"name":"Karavas Pizza N Pita"}
{"location":{"coordinates":[-73.9787406,40.7611474],"type":"Point"},"name":"China Grill"}
{"location":{"coordinates":[-73.9999854,40.7300989],"type":"Point"},"name":"New York University - Law School"}
{"location":{"coordinates":[-73.981751,40.7763588],"type":"Point"},"name":"Westside Restaurant"}
{"location":{"coordinates":[-73.969439,40.7983829],"type":"Point"},"name":"Sal And Carmine Pizza"}
{"location":{"coordinates":[-73.9792691,40.7649292],"type":"Point"},"name":"Club Metropolitan"}
{"location":{"coordinates":[-74.0239115,40.6269162],"type":"Point"},"name":"Rocco'S Pizzeria"}
{"location":{"coordinates":[-73.992869,40.740758],"type":"Point"},"name":"Periyali"}
{"location":{"coordinates":[-73.9063134,40.700273],"type":"Point"},"name":"Sanremo Pizza"}
{"location":{"coordinates":[-73.85914,40.877498],"type":"Point"},"name":"Frank'S Soup Bowl"}
{"location":{"coordinates":[-73.9135648,40.7458604],"type":"Point"},"name":"Copper Kettle"}
{"location":{"coordinates":[-73.8812773,40.679218],"type":"Point"},"name":"White Castle"}
{"location":{"coordinates":[-73.988231,40.76503200000001],"type":"Point"},"name":"El Azteca Mexican Restaurant"}
{"location":{"coordinates":[-73.75767259999999,40.7538214],"type":"Point"},"name":"Science Cafe (Queensborough  Community College)"}
{"location":{"coordinates":[-74.0045136,40.7236625],"type":"Point"},"name":"Lupe'S East L.A. Kitchen"}
{"location":{"coordinates":[-73.9879785,40.75331250000001],"type":"Point"},"name":"Arno Ristorante"}
{"location":{"coordinates":[-73.967893,40.75682],"type":"Point"},"name":"T \u0026 G Whitney'S"}
{"location":{"coordinates":[-73.99741519999999,40.7186078],"type":"Point"},"name":"Pellegrino'S"}
{"location":{"coordinates":[-73.87113099999999,40.825183],"type":"Point"},"name":"White Castle"}
{"location":{"coordinates":[-73.8789718,40.7483467],"type":"Point"},"name":"La Casa Del Pollo Restaurant"}
{"location":{"coordinates":[-73.76981409999999,40.7605092],"type":"Point"},"name":"White Castle"}
{"location":{"coordinates":[-73.9573454,40.7747147],"type":"Point"},"name":"Due"}
{"location":{"coordinates":[-73.99582699999999,40.739672],"type":"Point"},"name":"Da Umberto Restaurant"}
{"location":{"coordinates":[-73.8864787,40.8588703],"type":"Point"},"name":"White Castle"}
{"location":{"coordinates":[-73.9585056,40.7193481],"type":"Point"},"name":"Teddy'S Bar And Grill"}
{"location":{"coordinates":[-73.9883909,40.740735],"type":"Point"},"name":"Live Bait Bar \u0026 Restaurant"}
{"location":{"coordinates":[-74.1386716,40.6160213],"type":"Point"},"name":"Jimmy Max Restaurant"}
{"location":{"coordinates":[-73.97495669999999,40.7833],"type":"Point"},"name":"Uno Chicago Grill"}
{"location":{"coordinates":[-73.9932633,40.752437],"type":"Point"},"name":"T.G.I. Friday'S"}
{"location":{"coordinates":[-73.9641006,40.7566992],"type":"Point"},"name":"Tal Bagels Deli"}
{"location":{"coordinates":[-73.97672659999999,40.78598119999999],"type":"Point"},"name":"Cafe Lalo"}
{"location":{"coordinates":[-73.90745059999999,40.81268559999999],"type":"Point"},"name":"Venice Restaurant"}
{"location":{"coordinates":[-73.99905799999999,40.72837800000001],"type":"Point"},"name":"Peculiar Pub"}
{"location":{"coordinates":[-73.9497152,40.653664],"type":"Point"},"name":"Nostrand Island Eatery"}
{"location":{"coordinates":[-73.91039789999999,40.8745536],"type":"Point"},"name":"Arturo'S Pizza"}
{"location":{"coordinates":[-73.9105009,40.8005198],"type":"Point"},"name":"Walnut Bus Stop"}
{"location":{"coordinates":[-73.8290925,40.7587999],"type":"Point"},"name":"Kelly'S Pub"}
{"location":{"coordinates":[-73.98010790000001,40.6862191],"type":"Point"},"name":"Areo Restaurant"}
{"location":{"coordinates":[-73.9805746,40.7652002],"type":"Point"},"name":"Trattoria Della Arte"}
{"location":{"coordinates":[-74.065258,40.612447],"type":"Point"},"name":"Rosebank Tavern"}
{"location":{"coordinates":[-73.976152,40.63089799999999],"type":"Point"},"name":"Green Pavilion Restaurant \u0026 Sports Lounge"}
{"location":{"coordinates":[-73.9983829,40.7290603],"type":"Point"},"name":"Tre Giovani Pizza \u0026 Pasta"}
{"location":{"coordinates":[-73.95950400000001,40.773716],"type":"Point"},"name":"Lenox Hill Grill/Pizza"}
{"location":{"coordinates":[-73.9391802,40.844211],"type":"Point"},"name":"Galicia Restaurant"}
{"location":{"coordinates":[-78.877224,42.89546199999999],"type":"Point"},"name":"T.G.I. Friday'S"}
{"location":{"coordinates":[-73.8529552,40.83376459999999],"type":"Point"},"name":"Wendy'S"}
{"location":{"coordinates":[-73.9916209,40.7593916],"type":"Point"},"name":"Westway Diner"}
{"location":{"coordinates":[-73.9998818,40.74289419999999],"type":"Point"},"name":"Rocking Horse Cafe"}
{"location":{"coordinates":[-73.9585846,40.8097806],"type":"Point"},"name":"Masawa"}
{"location":{"coordinates":[-73.94838039999999,40.6325077],"type":"Point"},"name":"Luigi'S Pizza"}
{"location":{"coordinates":[-74.0051398,40.7281648],"type":"Point"},"name":"Sob'S"}
{"location":{"coordinates":[-74.007032,40.7196857],"type":"Point"},"name":"Walker'S Restaurant"}
{"location":{"coordinates":[-73.993494,40.756672],"type":"Point"},"name":"Holland Bar"}
{"location":{"coordinates":[-73.8555094,40.8406624],"type":"Point"},"name":"The Pizza Place"}
{"location":{"coordinates":[-73.976075,40.780319],"type":"Point"},"name":"Scaletta Ristorante"}
{"location":{"coordinates":[-73.9402484,40.7509792],"type":"Point"},"name":"Lucky Pizza"}
{"location":{"coordinates":[-73.992091,40.6354339],"type":"Point"},"name":"Amnon Kosher Pizza"}
{"location":{"coordinates":[-73.97817599999999,40.757775],"type":"Point"},"name":"T.G.I. Friday'S"}
{"location":{"coordinates":[-73.985568,40.7307496],"type":"Point"},"name":"Angelica Kitchen"}
{"location":{"coordinates":[-74.00660599999999,40.733932],"type":"Point"},"name":"Cowgirl Hall Of Fame"}
{"location":{"coordinates":[-73.9788903,40.7605367],"type":"Point"},"name":"Yip'S"}
{"location":{"coordinates":[-73.8419254,40.8803012],"type":"Point"},"name":"White Castle"}
{"location":{"coordinates":[-73.9206715,40.8677164],"type":"Point"},"name":"Pipers Kilt"}
{"location":{"coordinates":[-73.986446,40.6915505],"type":"Point"},"name":"Lee'S Villa Chinese Restaurant"}
{"location":{"coordinates":[-73.9181633,40.8151851],"type":"Point"},"name":"Isla Restauraunt"}
{"location":{"coordinates":[-74.1064605,40.634613],"type":"Point"},"name":"Puttin On A Bagel"}
{"location":{"coordinates":[-74.01229450000001,40.7074764],"type":"Point"},"name":"Champ'S Deli"}
{"location":{"coordinates":[-73.9669846,40.8049697],"type":"Point"},"name":"Famous Famiglia Pizza"}
{"location":{"coordinates":[-74.00148399999999,40.7371583],"type":"Point"},"name":"Bennys Burritos"}
{"location":{"coordinates":[-73.8836996,40.7019366],"type":"Point"},"name":"Glendale Pizza"}
{"location":{"coordinates":[-73.9619036,40.6675708],"type":"Point"},"name":"Brooklyn Botanic Catering Hall"}
{"location":{"coordinates":[-73.8177658,40.8204314],"type":"Point"},"name":"Spoto'S Restaurant"}
{"location":{"coordinates":[-73.97081399999999,40.793965],"type":"Point"},"name":"Dive Bar"}
{"location":{"coordinates":[-73.97937,40.754292],"type":"Point"},"name":"The Cornell Center Of New York"}
{"location":{"coordinates":[-73.94875979999999,40.6509995],"type":"Point"},"name":"Queen Bee'S Tavern"}
{"location":{"coordinates":[-73.96098789999999,40.778213],"type":"Point"},"name":"Nectar Of 82Nd Street"}
{"location":{"coordinates":[-73.9431862,40.7146566],"type":"Point"},"name":"White Castle"}
{"location":{"coordinates":[-73.97128959999999,40.7881015],"type":"Point"},"name":"Bella Luna"}
{"location":{"coordinates":[-73.9786446,40.7527136],"type":"Point"},"name":"T.G.I. Friday'S"}
{"location":{"coordinates":[-73.9153499,40.7637436],"type":"Point"},"name":"Baskin Robbins"}
{"location":{"coordinates":[-73.9876443,40.7358217],"type":"Point"},"name":"Yama Japanese Restaurant'"}
{"location":{"coordinates":[-74.03208579999999,40.6215814],"type":"Point"},"name":"Chadwick'S"}
{"location":{"coordinates":[-73.9860427,40.7229989],"type":"Point"},"name":"2A"}
{"location":{"coordinates":[-73.99624560000001,40.6951645],"type":"Point"},"name":"Teresa'S Resturant"}
{"location":{"coordinates":[-73.962756,40.769241],"type":"Point"},"name":"Sette Mezzo"}
{"location":{"coordinates":[-73.988568,40.760303],"type":"Point"},"name":"La Rivista Restaurant"}
{"location":{"coordinates":[-73.9848522,40.7533144],"type":"Point"},"name":"Pax Wholesome Foods"}
{"location":{"coordinates":[-73.9874091,40.72863479999999],"type":"Point"},"name":"Dallas Bbq"}
{"location":{"coordinates":[-73.98779019999999,40.7292837],"type":"Point"},"name":"Sakebar Decibel"}
{"location":{"coordinates":[-73.987875,40.719752],"type":"Point"},"name":"El Castillo De Jagua Rest"}
{"location":{"coordinates":[-73.82328319999999,40.8689401],"type":"Point"},"name":"Bagel Cafe"}
{"location":{"coordinates":[-0.7119979,51.6514664],"type":"Point"},"name":"T.G.I. Fridays"}
{"location":{"coordinates":[-73.9842265,40.7253886],"type":"Point"},"name":"Benny'S Burritos"}
{"location":{"coordinates":[-73.987292,40.725414],"type":"Point"},"name":"Guayoyo"}
{"location":{"coordinates":[-73.98724899999999,40.766272],"type":"Point"},"name":"Sacco Pizza"}
{"location":{"coordinates":[-73.9270272,40.7629397],"type":"Point"},"name":"Sac'S Pizza Place"}
{"location":{"coordinates":[-74.0017238,40.7359904],"type":"Point"},"name":"Rivoli Pizza Restaurant"}
{"location":{"coordinates":[-73.7801447,40.7779482],"type":"Point"},"name":"Baybridge Szechuan Restaurant"}
{"location":{"coordinates":[-73.84920869999999,40.7316791],"type":"Point"},"name":"Ideal Donut"}
{"location":{"coordinates":[-73.8881363,40.655407],"type":"Point"},"name":"Royal Pizza"}
{"location":{"coordinates":[-73.96522499999999,40.805478],"type":"Point"},"name":"Tom'S Restaurant"}
{"location":{"coordinates":[-73.991669,40.737153],"type":"Point"},"name":"Campeon"}
{"location":{"coordinates":[-73.9024234,40.8545577],"type":"Point"},"name":"Vinny'S Famous Pizza"}
{"location":{"coordinates":[-73.9657113,40.7601715],"type":"Point"},"name":"Townhouse Of Ny"}
{"location":{"coordinates":[-73.960011,40.7700744],"type":"Point"},"name":"Dallas Bbq"}
{"location":{"coordinates":[-73.8189257,40.82115659999999],"type":"Point"},"name":"Rino'S"}
{"location":{"coordinates":[-73.77206319999999,40.7650324],"type":"Point"},"name":"Uno Chicago Grill"}
{"location":{"coordinates":[-73.9177601,40.7423593],"type":"Point"},"name":"Bliss Street Station Restaurant"}
{"location":{"coordinates":[-74.0034907,40.722135],"type":"Point"},"name":"Lucky Strike"}
{"location":{"coordinates":[-73.9660459,40.75609439999999],"type":"Point"},"name":"Ah! Chihuahua"}
{"location":{"coordinates":[-73.8956317,40.7269685],"type":"Point"},"name":"Rosa'S Pizza"}
{"location":{"coordinates":[-74.01153459999999,40.7061121],"type":"Point"},"name":"Champ Gourmet"}
{"location":{"coordinates":[-73.9685372,40.7103536],"type":"Point"},"name":"Giando"}
{"location":{"coordinates":[-73.84257319999999,40.7191229],"type":"Point"},"name":"Austin House"}
{"location":{"coordinates":[-73.83845699999999,40.582524],"type":"Point"},"name":"Wharf Bar And Grill"}
{"location":{"coordinates":[-73.9907994,40.7156752],"type":"Point"},"name":"Classic Coffee Shop"}
{"location":{"coordinates":[-73.74757249999999,40.6959609],"type":"Point"},"name":"O G Restaurant"}
{"location":{"coordinates":[-73.98482229999999,40.7645702],"type":"Point"},"name":"Da Tommasso"}
{"location":{"coordinates":[-73.9918113,40.6913309],"type":"Point"},"name":"Queen"}
{"location":{"coordinates":[-73.99638569999999,40.72209369999999],"type":"Point"},"name":"Pomodoro Ristorante"}
{"location":{"coordinates":[-73.8424017,40.7194513],"type":"Point"},"name":"5 Burro Cafe"}
{"location":{"coordinates":[-73.9538042,40.7730966],"type":"Point"},"name":"Quatorze Bistro"}
{"location":{"coordinates":[-73.89621989999999,40.7467198],"type":"Point"},"name":"Lucho'S Place"}
{"location":{"coordinates":[-73.988342,40.727111],"type":"Point"},"name":"Haveli"}
{"location":{"coordinates":[-73.8487037,40.7319571],"type":"Point"},"name":"Cho-Sen Garden"}
{"location":{"coordinates":[-73.9847137,40.7371804],"type":"Point"},"name":"Barfly"}
{"location":{"coordinates":[-73.9732585,40.79229249999999],"type":"Point"},"name":"Cleopatra'S Needle"}
{"location":{"coordinates":[-73.819575,40.8291703],"type":"Point"},"name":"Villa Barone Manor"}
{"location":{"coordinates":[-73.771625,40.764232],"type":"Point"},"name":"Papazzio Restaurant"}
{"location":{"coordinates":[-73.9557858,40.813575],"type":"Point"},"name":"The Famous Jimbo'S Hamburger Palace"}
{"location":{"coordinates":[-73.9667463,40.6935651],"type":"Point"},"name":"Kum Kau Kitchen"}
{"location":{"coordinates":[-74.1126424,40.5722235],"type":"Point"},"name":"Taste Of India Ii Restaurant"}
{"location":{"coordinates":[-74.0097128,40.7121042],"type":"Point"},"name":"Stage Door Deli"}
{"location":{"coordinates":[-73.9862347,40.75015459999999],"type":"Point"},"name":"Han Bat Restaurant"}
{"location":{"coordinates":[-73.9105112,40.6699158],"type":"Point"},"name":"Dennis' Place"}
{"location":{"coordinates":[-73.9592335,40.76383930000001],"type":"Point"},"name":"O'Flanagan'S"}
{"location":{"coordinates":[-73.833378,40.688097],"type":"Point"},"name":"Caterina'S Pizza"}
{"location":{"coordinates":[-74.0631248,40.6097835],"type":"Point"},"name":"Danny Blaine"}
{"location":{"coordinates":[-73.739475,40.705207],"type":"Point"},"name":"White Castle"}
{"location":{"coordinates":[-73.88460020000001,40.764499],"type":"Point"},"name":"Joey'S Place"}
{"location":{"coordinates":[-73.9877595,40.7248378],"type":"Point"},"name":"The Edge Bar"}
{"location":{"coordinates":[-74.085013,40.5966165],"type":"Point"},"name":"Cafe Luna"}
{"location":{"coordinates":[-73.82034759999999,40.824629],"type":"Point"},"name":"Loui Seafood"}
{"location":{"coordinates":[-74.020889,40.633037],"type":"Point"},"name":"Killarney'S Pub"}
{"location":{"coordinates":[-73.8894548,40.7470518],"type":"Point"},"name":"Miracali Bakery"}
{"location":{"coordinates":[-73.9761439,40.7478596],"type":"Point"},"name":"Daniel'S Bagel"}
{"location":{"coordinates":[-73.977572,40.74978100000001],"type":"Point"},"name":"Scotty'S Diner"}
{"location":{"coordinates":[-73.91222499999999,40.7677472],"type":"Point"},"name":"Kabab Cafe"}
{"location":{"coordinates":[-74.0775165,40.643984],"type":"Point"},"name":"A \u0026 S Pizzeria"}
{"location":{"coordinates":[-73.9523098,40.76589620000001],"type":"Point"},"name":"Belaire Cafe"}
{"location":{"coordinates":[-73.9573743,40.7746471],"type":"Point"},"name":"Luke'S Bar \u0026 Grill"}
{"location":{"coordinates":[-73.96875399999999,40.757204],"type":"Point"},"name":"Solera Restaurant"}
{"location":{"coordinates":[-73.9288969,40.8644501],"type":"Point"},"name":"Irish Brigade"}
{"location":{"coordinates":[-73.99331699999999,40.7594404],"type":"Point"},"name":"Little Pie Company"}
{"location":{"coordinates":[-73.97894699999999,40.777789],"type":"Point"},"name":"Malachy'S"}
{"location":{"coordinates":[-73.989497,40.754057],"type":"Point"},"name":"Lazzaras Pizza Cafe"}
{"location":{"coordinates":[-73.986521,40.767623],"type":"Point"},"name":"Bello Restaurant"}
{"location":{"coordinates":[-73.979771,40.757729],"type":"Point"},"name":"Pronto Pizza"}
{"location":{"coordinates":[-73.9953713,40.6036019],"type":"Point"},"name":"Grotto Azzura Pizzeria"}
{"location":{"coordinates":[-73.9852422,40.7589981],"type":"Point"},"name":"The Palace Theater"}
{"location":{"coordinates":[-73.7308948,40.760634],"type":"Point"},"name":"Richer'S Bakery"}
{"location":{"coordinates":[-73.9192774,40.8644476],"type":"Point"},"name":"El Lina Restaurant"}
{"location":{"coordinates":[-74.02357789999999,40.6288524],"type":"Point"},"name":"Bay Ridge Manor Catering"}
{"location":{"coordinates":[-73.813673,40.691014],"type":"Point"},"name":"Sybil'S Bakery"}
{"location":{"coordinates":[-73.7108839,40.7279539],"type":"Point"},"name":"Vaccaro'S Pizzeria \u0026 Trattoria"}
{"location":{"coordinates":[-73.7889689,40.6433507],"type":"Point"},"name":"Air France Lounge"}
{"location":{"coordinates":[-73.843266,40.854348],"type":"Point"},"name":"Gleason'S Cafe"}
{"location":{"coordinates":[-74.0063787,40.7108898],"type":"Point"},"name":"The Beekman"}
{"location":{"coordinates":[-73.9058659,40.7456127],"type":"Point"},"name":"Peking Restaurant"}
{"location":{"coordinates":[-73.95609999999999,40.785009],"type":"Point"},"name":"Vico Ristorante"}
{"location":{"coordinates":[-73.9771312,40.67257840000001],"type":"Point"},"name":"Szechuan Delight Restaurant"}
{"location":{"coordinates":[-74.0019453,40.7382932],"type":"Point"},"name":"Tea And Sympathy"}
{"location":{"coordinates":[-73.92396529999999,40.6903438],"type":"Point"},"name":"Collado Restaurant"}
{"location":{"coordinates":[-73.98443,40.725358],"type":"Point"},"name":"Taka Hashi Restaurant"}
{"location":{"coordinates":[-73.9256281,40.8063364],"type":"Point"},"name":"Mcdonald'S"}
{"location":{"coordinates":[-73.9821691,40.7554761],"type":"Point"},"name":"Bar Association Of The City Of Ny Kitchen"}
{"location":{"coordinates":[-73.9743584,40.7534139],"type":"Point"},"name":"Bel Paese Italian Deli"}
{"location":{"coordinates":[-73.9890844,40.7483602],"type":"Point"},"name":"Mcdonald'S"}
{"location":{"coordinates":[-73.9715774,40.7626541],"type":"Point"},"name":"Tokya"}
{"location":{"coordinates":[-73.989025,40.759994],"type":"Point"},"name":"Orso"}
{"location":{"coordinates":[-73.9538783,40.787312],"type":"Point"},"name":"3 Guys"}
{"location":{"coordinates":[-73.95459819999999,40.7744927],"type":"Point"},"name":"H \u0026 H Midtown Bagels East"}
{"location":{"coordinates":[-73.8794087,40.7559137],"type":"Point"},"name":"White Castle"}
{"location":{"coordinates":[-73.9733955,40.75470989999999],"type":"Point"},"name":"Lily'S Bar @ Roger Smith Hotel"}
{"location":{"coordinates":[-73.7402293,40.6356182],"type":"Point"},"name":"Ihop"}
{"location":{"coordinates":[-74.16906999999999,40.60375],"type":"Point"},"name":"Hillside Swimming Club"}
{"location":{"coordinates":[-73.97866499999999,40.765296],"type":"Point"},"name":"The Nippon Club"}
{"location":{"coordinates":[-74.11556999999999,40.573835],"type":"Point"},"name":"La Strada Restaurant"}
{"location":{"coordinates":[-73.995856,40.7493849],"type":"Point"},"name":"Walter'S Bar"}
{"location":{"coordinates":[-74.1651864,40.5438954],"type":"Point"},"name":"Salvatore And Lloyd'S Pizza"}
{"location":{"coordinates":[-74.0033499,40.72255],"type":"Point"},"name":"Novecento"}
{"location":{"coordinates":[-73.9630363,40.7577488],"type":"Point"},"name":"Sutton Cafe Restaurant"}
{"location":{"coordinates":[-73.95632379999999,40.7755794],"type":"Point"},"name":"Beyoglu"}
{"location":{"coordinates":[-73.99978949999999,40.7186898],"type":"Point"},"name":"Fay Da Bakery"}
{"location":{"coordinates":[-73.897185,40.8615512],"type":"Point"},"name":"Fordham Seafood And Chicken"}
{"location":{"coordinates":[-73.9890601,40.7538643],"type":"Point"},"name":"Cambridge Caterers"}
{"location":{"coordinates":[-73.830311,40.759006],"type":"Point"},"name":"Mcdonald'S"}
{"location":{"coordinates":[-74.0969897,40.5830445],"type":"Point"},"name":"Cafe Bella Vita"}
{"location":{"coordinates":[-73.9549067,40.6971322],"type":"Point"},"name":"Charle'S Corner Restaurant \u0026 Deli"}
{"location":{"coordinates":[-73.9673998,40.802516],"type":"Point"},"name":"Absolute Bagels"}
{"location":{"coordinates":[-73.8958229,40.752156],"type":"Point"},"name":"B.Q.E. Cafe Billiards"}
{"location":{"coordinates":[-73.9503367,40.777553],"type":"Point"},"name":"Tal Bagel"}
{"location":{"coordinates":[-73.80217999999999,40.707304],"type":"Point"},"name":"Dunkin' Donuts"}
{"location":{"coordinates":[-74.00345709999999,40.73635100000001],"type":"Point"},"name":"Tartine"}
{"location":{"coordinates":[-74.0022315,40.7393829],"type":"Point"},"name":"Ipanema Bar"}
{"location":{"coordinates":[-74.0064209,40.7310687],"type":"Point"},"name":"Henrietta Hudson"}
{"location":{"coordinates":[-73.9830854,40.7270359],"type":"Point"},"name":"Lucys"}
{"location":{"coordinates":[-73.9492258,40.7131675],"type":"Point"},"name":"Sal'S Pizzeria"}
{"location":{"coordinates":[-73.9828696,40.7693649],"type":"Point"},"name":"Gabriel'S Bar \u0026 Grill"}
{"location":{"coordinates":[-73.9809909,40.7422324],"type":"Point"},"name":"Jaiya Thai Oriental Restaurant"}
{"location":{"coordinates":[-73.8630828,40.7502594],"type":"Point"},"name":"Nueva Villa China Restaurant"}
{"location":{"coordinates":[-73.9948902,40.7286803],"type":"Point"},"name":"Dojo Restaurant"}
{"location":{"coordinates":[-73.8092355,40.76449090000001],"type":"Point"},"name":"Ihop"}
{"location":{"coordinates":[-73.906922,40.619872],"type":"Point"},"name":"Bergen Beach Cafe"}
{"location":{"coordinates":[-73.9932394,40.7336411],"type":"Point"},"name":"El Cantinero"}
{"location":{"coordinates":[-73.9832361,40.7382721],"type":"Point"},"name":"Molly'S"}
{"location":{"coordinates":[-73.99076149999999,40.7653444],"type":"Point"},"name":"Azuri Cafe"}
{"location":{"coordinates":[-74.00577439999999,40.72448929999999],"type":"Point"},"name":"Amelia'S Restaurant"}
{"location":{"coordinates":[-73.9649155,40.5771957],"type":"Point"},"name":"National Restaurant \u0026 Catering"}
{"location":{"coordinates":[-73.8836961,40.7496704],"type":"Point"},"name":"Jackson House Restaurant"}
{"location":{"coordinates":[-73.8757937,40.7360927],"type":"Point"},"name":"Georgia Diner"}
{"location":{"coordinates":[-73.9784822,40.75316000000001],"type":"Point"},"name":"Patrick Conways"}
{"location":{"coordinates":[-73.98694499999999,40.692606],"type":"Point"},"name":"Metrostar Cafe"}
{"location":{"coordinates":[-73.88704919999999,40.747519],"type":"Point"},"name":"Friend'S Tavern"}
{"location":{"coordinates":[-73.9652191,40.7627652],"type":"Point"},"name":"Scalinatella Ristaurant"}
{"location":{"coordinates":[-73.80545049999999,40.7017543],"type":"Point"},"name":"Rincon Salvadoreno Restaurant"}
{"location":{"coordinates":[-73.971952,40.79371],"type":"Point"},"name":"La Nueva Victoria Restaurant"}
{"location":{"coordinates":[-73.9899313,40.731505],"type":"Point"},"name":"Amsterdam Billiards"}
{"location":{"coordinates":[-73.97635439999999,40.6438997],"type":"Point"},"name":"Yen Yen Restaurant"}
{"location":{"coordinates":[-73.9947256,40.6852794],"type":"Point"},"name":"Buddy'S Burrito \u0026 Taco Bar"}
{"location":{"coordinates":[-73.7845323,40.7575758],"type":"Point"},"name":"Oasis Cafe"}
{"location":{"coordinates":[-73.9597299,40.770444],"type":"Point"},"name":"E.J Luncheonette"}
{"location":{"coordinates":[-73.95869990000001,40.780493],"type":"Point"},"name":"Demarchelier Restaurant"}
{"location":{"coordinates":[-73.9510102,40.5836641],"type":"Point"},"name":"V \u0026 S Pizzeria Of Sheapshead Bay"}
{"location":{"coordinates":[-73.945866,40.746087],"type":"Point"},"name":"Court Square Diner"}
{"location":{"coordinates":[-73.97490839999999,40.7532711],"type":"Point"},"name":"Davis Polk Dining Room"}
{"location":{"coordinates":[-73.9605993,40.6805698],"type":"Point"},"name":"White Castle"}
{"location":{"coordinates":[-73.9972555,40.7476408],"type":"Point"},"name":"Mcdonald'S"}
{"location":{"coordinates":[-73.984758,40.7457939],"type":"Point"},"name":"Bella Napoli"}
{"location":{"coordinates":[-73.9931261,40.6887559],"type":"Point"},"name":"Cody'S Ale House Grill"}
{"location":{"coordinates":[-74.0015476,40.7323956],"type":"Point"},"name":"Down The Hatch"}
{"location":{"coordinates":[-74.029397,40.628295],"type":"Point"},"name":"J.J. Bubbles"}
{"location":{"coordinates":[-73.97977759999999,40.6428602],"type":"Point"},"name":"Faros Restaurant"}
{"location":{"coordinates":[-73.98257989999999,40.7400916],"type":"Point"},"name":"Fitzgerald'S Pub"}
{"location":{"coordinates":[-73.8519705,40.8730299],"type":"Point"},"name":"Gun Post Lanes Snack Bar"}
{"location":{"coordinates":[-73.982976,40.7599775],"type":"Point"},"name":"Pasta Lovers Trattoria"}
{"location":{"coordinates":[-73.8834289,40.7559834],"type":"Point"},"name":"Los Toldos Restaurant"}
{"location":{"coordinates":[-73.84361799999999,40.674895],"type":"Point"},"name":"Glen Patrick'S Pub"}
{"location":{"coordinates":[-74.0042175,40.7473469],"type":"Point"},"name":"Don Giovanni Restaurant"}
{"location":{"coordinates":[-74.0099723,40.7196029],"type":"Point"},"name":"Tribeca Grill"}
{"location":{"coordinates":[-73.98588629999999,40.7292211],"type":"Point"},"name":"Shabu Tatsu"}
{"location":{"coordinates":[-73.9521974,40.81086920000001],"type":"Point"},"name":"Popeyes Chicken \u0026 Biscuits"}
{"location":{"coordinates":[-73.9243061,40.8276297],"type":"Point"},"name":"El Molino Rojo Restaurant"}
{"location":{"coordinates":[-73.992465,40.729258],"type":"Point"},"name":"Indo Chine"}
{"location":{"coordinates":[-73.8999395,40.7292132],"type":"Point"},"name":"Glen Patrick'S Pub"}
{"location":{"coordinates":[-73.9049922,40.6962313],"type":"Point"},"name":"C \u0026 B Luncheonette"}
{"location":{"coordinates":[-73.8952941,40.70071710000001],"type":"Point"},"name":"Dunkin' Donuts"}
{"location":{"coordinates":[-73.97443109999999,40.7604984],"type":"Point"},"name":"San Pietro"}
{"location":{"coordinates":[-73.9739876,40.7518635],"type":"Point"},"name":"Muldoons Bar"}
{"location":{"coordinates":[-73.92329939999999,40.6648509],"type":"Point"},"name":"Tony'S Pizza Ii"}
{"location":{"coordinates":[-73.88131419999999,40.7357155],"type":"Point"},"name":"Grandstand Tavern"}
{"location":{"coordinates":[-73.9829084,40.771793],"type":"Point"},"name":"Julliard \u0026 S.A.B. Cafeteria"}
{"location":{"coordinates":[-73.90559979999999,40.7455459],"type":"Point"},"name":"Pizza Boy Ii"}
{"location":{"coordinates":[-73.9461132,40.7456289],"type":"Point"},"name":"Manetta'S Ristorante"}
{"location":{"coordinates":[-73.983406,40.7258722],"type":"Point"},"name":"Niagara/ Lovers Of Today/ Cabin Down Below"}
{"location":{"coordinates":[-73.8966634,40.8669958],"type":"Point"},"name":"O'Brien'S Pub"}
{"location":{"coordinates":[-73.931917,40.6175723],"type":"Point"},"name":"Salvi Restaurant"}
{"location":{"coordinates":[-74.0012107,40.74210799999999],"type":"Point"},"name":"Flight 151"}
{"location":{"coordinates":[-73.7977964,40.7090806],"type":"Point"},"name":"White Castle"}
{"location":{"coordinates":[-73.9707505,40.7635651],"type":"Point"},"name":"Delmonico Gourmet"}
{"location":{"coordinates":[-73.90904499999999,40.88041339999999],"type":"Point"},"name":"Tibbett Diner"}
{"location":{"coordinates":[-73.8884494,40.7653446],"type":"Point"},"name":"Jackson Hole"}
{"location":{"coordinates":[-73.821939,40.686825],"type":"Point"},"name":"Sandy'S Deli \u0026 Roti"}
{"location":{"coordinates":[-73.983139,40.759967],"type":"Point"},"name":"Bombay Masala"}
{"location":{"coordinates":[-73.96171079999999,40.6248868],"type":"Point"},"name":"Garden Of Eat-In"}
{"location":{"coordinates":[-73.9193791,40.75896760000001],"type":"Point"},"name":"Cronin \u0026 Phelan Pub \u0026 Restaurant"}
{"location":{"coordinates":[-74.0087873,40.6109983],"type":"Point"},"name":"Pizza Plate"}
{"location":{"coordinates":[-73.95412499999999,40.743569],"type":"Point"},"name":"San Remo Pizza"}
{"location":{"coordinates":[-73.978911,40.764421],"type":"Point"},"name":"Topaz Thai Restaurant"}
{"location":{"coordinates":[-73.97926799999999,40.743595],"type":"Point"},"name":"Moonstruck East"}
{"location":{"coordinates":[-73.9557397,40.785099],"type":"Point"},"name":"Pascalou"}
{"location":{"coordinates":[-74.010342,40.611598],"type":"Point"},"name":"Tommaso Restaurant"}
{"location":{"coordinates":[-73.9318138,40.6176659],"type":"Point"},"name":"Frank'S Pizza Restaurant"}
{"location":{"coordinates":[-73.9896289,40.76025],"type":"Point"},"name":"Da Rosina Restaurant"}
{"location":{"coordinates":[-74.1331891,40.56415930000001],"type":"Point"},"name":"Island Taste"}
{"location":{"coordinates":[-73.9853684,40.7311278],"type":"Point"},"name":"Little Poland Restaurant"}
{"location":{"coordinates":[-73.9394856,40.8426994],"type":"Point"},"name":"Empire Szechuan Noodle House"}
{"location":{"coordinates":[-92.7302205,41.7461454],"type":"Point"},"name":"Bar Six"}
{"location":{"coordinates":[-73.957274,40.770774],"type":"Point"},"name":"Baraonda"}
{"location":{"coordinates":[-74.1660553,40.5823983],"type":"Point"},"name":"Master Wok"}
{"location":{"coordinates":[-73.97380120000001,40.7482611],"type":"Point"},"name":"Abitino'S Pizza"}
{"location":{"coordinates":[-74.0058124,40.7380446],"type":"Point"},"name":"Piccolo Angolo"}
{"location":{"coordinates":[-73.99468200000001,40.6407],"type":"Point"},"name":"A.J. Pizzeria"}
{"location":{"coordinates":[-73.9629278,40.7791655],"type":"Point"},"name":"Members Dining Room @ The Met Museum"}
{"location":{"coordinates":[-73.7075077,40.7495887],"type":"Point"},"name":"Luigi'S Restaurant"}
{"location":{"coordinates":[-73.99842079999999,40.7290139],"type":"Point"},"name":"Marumi"}
{"location":{"coordinates":[-74.1296886,40.6264756],"type":"Point"},"name":"Egger'S Ice Cream Parlor"}
{"location":{"coordinates":[-73.8113218,40.5875274],"type":"Point"},"name":"The Restaurant"}
{"location":{"coordinates":[-73.732315,40.720725],"type":"Point"},"name":"Mateus Restaurant"}
{"location":{"coordinates":[-73.9872656,40.6399854],"type":"Point"},"name":"Gino'S Pizza"}
{"location":{"coordinates":[-73.98035,40.777747],"type":"Point"},"name":"Fine \u0026 Shapiro"}
{"location":{"coordinates":[-73.7704645,40.6579399],"type":"Point"},"name":"Ambassador Dining Room  At Saratoga Family Inn"}
{"location":{"coordinates":[-73.96743500000001,40.8005319],"type":"Point"},"name":"The Abbey Pub"}
{"location":{"coordinates":[-73.9837606,40.7608268],"type":"Point"},"name":"Caroline'S On Broadway"}
{"location":{"coordinates":[-73.85694079999999,40.8936238],"type":"Point"},"name":"E \u0026 L Bakery \u0026 Coffee Shop"}
{"location":{"coordinates":[-73.85701399999999,40.901577],"type":"Point"},"name":"Wembley Athletic Club"}
{"location":{"coordinates":[-73.9581403,40.7087235],"type":"Point"},"name":"Las Isla Restaurant"}
{"location":{"coordinates":[-73.954818,40.768811],"type":"Point"},"name":"Campagnola Restaurant"}
{"location":{"coordinates":[-74.0086962,40.7388469],"type":"Point"},"name":"The Upper Crust"}
{"location":{"coordinates":[-74.031519,40.6229395],"type":"Point"},"name":"Tuscany Grill"}
{"location":{"coordinates":[-73.8380032,40.65281179999999],"type":"Point"},"name":"Russo'S On The Bay"}
{"location":{"coordinates":[-73.8761791,40.7634533],"type":"Point"},"name":"Buccaneer Diner"}
{"location":{"coordinates":[-73.8143517,40.7885254],"type":"Point"},"name":"The End Zone Bar"}
{"location":{"coordinates":[-73.8739659,40.7769271],"type":"Point"},"name":"American Airlines Employee Cafeteria"}
{"location":{"coordinates":[-73.91043359999999,40.7756386],"type":"Point"},"name":"Dunkin' Donuts"}
{"location":{"coordinates":[-73.99703339999999,40.7160416],"type":"Point"},"name":"Jing Fong Restaurant"}
{"location":{"coordinates":[-73.989807,40.7608279],"type":"Point"},"name":"Becco"}
{"location":{"coordinates":[-73.85553,40.89668349999999],"type":"Point"},"name":"Cullen'S Tavern"}
{"location":{"coordinates":[-73.9917662,40.76002889999999],"type":"Point"},"name":"Rudy'S Bar \u0026 Grill"}
{"location":{"coordinates":[-73.830072,40.709375],"type":"Point"},"name":"Austin'S Steak \u0026 Ale House"}
{"location":{"coordinates":[-73.9191383,40.6371133],"type":"Point"},"name":"Tony'S Pizzeria \u0026 Restaurant"}
{"location":{"coordinates":[-73.9851034,40.765368],"type":"Point"},"name":"Uncle Vanya"}
{"location":{"coordinates":[-73.951216,40.775354],"type":"Point"},"name":"Gino'S Pizzeria Restaurant"}
{"location":{"coordinates":[-73.9898776,40.7260157],"type":"Point"},"name":"Dempsey'S Pub"}
{"location":{"coordinates":[-73.8391839,40.6543479],"type":"Point"},"name":"Prima Pasta \u0026 Cafe"}
{"location":{"coordinates":[-73.9532315,40.7782353],"type":"Point"},"name":"Uno Chicago Grill"}
{"location":{"coordinates":[-73.84469299999999,40.721271],"type":"Point"},"name":"T-Bone Diner"}
{"location":{"coordinates":[-73.736463,40.73316],"type":"Point"},"name":"Winchesters Pub"}
{"location":{"coordinates":[-73.70225359999999,40.751891],"type":"Point"},"name":"Cafe Cardini"}
{"location":{"coordinates":[-73.9798842,40.6049957],"type":"Point"},"name":"Chicken Delicious"}
{"location":{"coordinates":[-73.8157492,40.7554185],"type":"Point"},"name":"Sunrise Coffee Shop"}
{"location":{"coordinates":[-74.02111289999999,40.6337396],"type":"Point"},"name":"Mike'S Donuts"}
{"location":{"coordinates":[-73.88376339999999,40.7458695],"type":"Point"},"name":"Ilda'S Place Ii"}
{"location":{"coordinates":[-74.0017127,40.7242606],"type":"Point"},"name":"Le Petit Cafe"}
{"location":{"coordinates":[-74.0137862,40.6272646],"type":"Point"},"name":"My Three Sons Restaurant"}
{"location":{"coordinates":[-73.73869499999999,40.69494299999999],"type":"Point"},"name":"Porto Prince Star Restaurant"}
{"location":{"coordinates":[-73.9848956,40.72855],"type":"Point"},"name":"Coyote Ugly"}
{"location":{"coordinates":[-73.9256595,40.7623472],"type":"Point"},"name":"Broadway Station"}
{"location":{"coordinates":[-74.0037427,40.7224542],"type":"Point"},"name":"Felix"}
{"location":{"coordinates":[-73.8413936,40.8402053],"type":"Point"},"name":"White Castle"}
{"location":{"coordinates":[-73.9191958,40.7430542],"type":"Point"},"name":"Alpha Donuts"}
{"location":{"coordinates":[-73.9759902,40.6262572],"type":"Point"},"name":"Mcdonald Avenue Diner"}
{"location":{"coordinates":[-74.0281239,40.6312553],"type":"Point"},"name":"Mezcal'S Dos Restaurant"}
{"location":{"coordinates":[-73.8413087,40.6634483],"type":"Point"},"name":"Sugar Bun Bakery"}
{"location":{"coordinates":[-73.99543779999999,40.6791887],"type":"Point"},"name":"Frank'S Place"}
{"location":{"coordinates":[-73.96712,40.798503],"type":"Point"},"name":"Camilles"}
{"location":{"coordinates":[-73.8795695,40.7411095],"type":"Point"},"name":"Elmhurst Famous Pizza"}
{"location":{"coordinates":[-73.8787725,40.8728659],"type":"Point"},"name":"Mcdonald'S"}
{"location":{"coordinates":[-73.9908184,40.686652],"type":"Point"},"name":"Caruso Pizzeria \u0026 Restaurant"}
{"location":{"coordinates":[-73.9875796,40.7709609],"type":"Point"},"name":"Olympic Flame Diner"}
{"location":{"coordinates":[-73.96642899999999,40.754211],"type":"Point"},"name":"Indigo Indian Cuisine"}
{"location":{"coordinates":[-74.1688867,40.5604033],"type":"Point"},"name":"Country Donuts"}
{"location":{"coordinates":[-73.94473839999999,40.6158108],"type":"Point"},"name":"Pizza Nosh"}
{"location":{"coordinates":[-73.9509786,40.8264242],"type":"Point"},"name":"Caridad Restaurant"}
{"location":{"coordinates":[-73.84043869999999,40.6797863],"type":"Point"},"name":"White Castle"}
{"location":{"coordinates":[-73.9563642,40.7712012],"type":"Point"},"name":"The Stumble Inn"}
{"location":{"coordinates":[-73.8754225,40.713315],"type":"Point"},"name":"Rosa #2 Pizzeria"}
{"location":{"coordinates":[-73.737484,40.7683787],"type":"Point"},"name":"Mcdonald'S"}
{"location":{"coordinates":[-73.7735119,40.7693963],"type":"Point"},"name":"Tequilla Sunrise"}
{"location":{"coordinates":[-73.9194763,40.807466],"type":"Point"},"name":"Golden Pizza"}
{"location":{"coordinates":[-73.86709549999999,40.8640754],"type":"Point"},"name":"Mcdonald'S"}
{"location":{"coordinates":[-74.162854,40.60778699999999],"type":"Point"},"name":"Mcdonald'S"}
{"location":{"coordinates":[-73.98352299999999,40.743549],"type":"Point"},"name":"Les Halles"}
{"location":{"coordinates":[-73.98475669999999,40.6626618],"type":"Point"},"name":"Java Restaurant"}
{"location":{"coordinates":[-73.9981541,40.7351897],"type":"Point"},"name":"French Roast"}
{"location":{"coordinates":[-73.98606099999999,40.728176],"type":"Point"},"name":"Jules Bistro"}
{"location":{"coordinates":[-73.98087199999999,40.775067],"type":"Point"},"name":"Il Violino"}
{"location":{"coordinates":[-73.9776503,40.7521147],"type":"Point"},"name":"Hot \u0026 Crusty Bakery"}
{"location":{"coordinates":[-73.9738917,40.7605744],"type":"Point"},"name":"Smiler'S Deli"}
{"location":{"coordinates":[-73.8630529,40.8456372],"type":"Point"},"name":"Chick-N-Ribs"}
{"location":{"coordinates":[-73.9956844,40.7262603],"type":"Point"},"name":"Two Boots To Go-Go"}
{"location":{"coordinates":[-73.980296,40.765951],"type":"Point"},"name":"Europa Cafe"}
{"location":{"coordinates":[-73.9815103,40.7475731],"type":"Point"},"name":"Mendy'S"}
{"location":{"coordinates":[-73.9789821,40.7768026],"type":"Point"},"name":"Harry'S Burrito Junction"}
{"location":{"coordinates":[-74.108808,40.570254],"type":"Point"},"name":"Gennaro'S Rest \u0026 Pizzeria"}
{"location":{"coordinates":[-73.98221099999999,40.728341],"type":"Point"},"name":"Hi Fi"}
{"location":{"coordinates":[-73.986654,40.757498],"type":"Point"},"name":"Carmine'S"}
{"location":{"coordinates":[-73.8559465,40.7513484],"type":"Point"},"name":"Queens Coffee Shop"}
{"location":{"coordinates":[-73.9760637,40.7508686],"type":"Point"},"name":"Delmonico Gourmet"}
{"location":{"coordinates":[-73.9243079,40.7565289],"type":"Point"},"name":"Arharn Thai Cuisine"}
{"location":{"coordinates":[-73.9394471,40.8431703],"type":"Point"},"name":"La Dinastia"}
{"location":{"coordinates":[-73.9977256,40.7368279],"type":"Point"},"name":"Cafe Loup"}
{"location":{"coordinates":[-73.9252904,40.828054],"type":"Point"},"name":"Mcdonald'S"}
{"location":{"coordinates":[-73.9967999,40.720231],"type":"Point"},"name":"Caffe Roma"}
{"location":{"coordinates":[-73.9193652,40.7585221],"type":"Point"},"name":"Ritmo'S 60"}
{"location":{"coordinates":[-73.954054,40.729085],"type":"Point"},"name":"Christina'S Restaurant"}
{"location":{"coordinates":[-73.884734,40.747737],"type":"Point"},"name":"Pollos A La Brasa"}
{"location":{"coordinates":[-73.9838036,40.7587108],"type":"Point"},"name":"Langans Bar \u0026 Restaurant"}
{"location":{"coordinates":[-73.9699785,40.7559897],"type":"Point"},"name":"Ess-A-Bagel"}
{"location":{"coordinates":[-73.9500205,40.779562],"type":"Point"},"name":"Auction House"}
{"location":{"coordinates":[-73.9508638,40.7826745],"type":"Point"},"name":"Corner Cafe And Bakery"}
{"location":{"coordinates":[-74.0116374,40.6435373],"type":"Point"},"name":"Royal King'S Pizza"}
{"location":{"coordinates":[-73.999633,40.6178766],"type":"Point"},"name":"Mr. Phil'S Pizza"}
{"location":{"coordinates":[-73.8908967,40.6982006],"type":"Point"},"name":"Tee Dee'S Tavern"}
{"location":{"coordinates":[-73.884756,40.858821],"type":"Point"},"name":"Pugsley Pizza"}
{"location":{"coordinates":[-73.9705633,40.7605759],"type":"Point"},